University_link,Picture_Url,University_Name,nation_flag_picture,Country,City,Rank_In_World,Description,Global_Score,Enrollment,city_latitude,city_longitude,country_latitude,country_longitude
https://www.usnews.com/education/best-global-universities/harvard-university-166027,https://www.usnews.com/object/image/0000014e-d02b-d0b6-afdf-d03b72820000/$150727harvard?size=responsive300&update-time=1444057405951,Harvard University,https://www.usnews.com/static-atlas/assets/img/news/best-countries/flags-svg/USA.svg,United States,Cambridge (U.S.),#1,"Founded in 1636, Harvard University is the oldest higher education institution in the U.S. The bulk of Harvard's...",100.0,"21,887",14.5703754,121.0802774,39.7837304,-100.445882
https://www.usnews.com/education/best-global-universities/massachusetts-institute-of-technology-mit-166683,https://www.usnews.com/object/image/0000014e-d05f-d0b6-afdf-d05f34b90000/$150727MIT?size=responsive300&update-time=1535646171759,Massachusetts Institute of Technology (MIT),https://www.usnews.com/static-atlas/assets/img/news/best-countries/flags-svg/USA.svg,United States,Cambridge (U.S.),#2,"Massachusetts Institute of Technology, founded in 1861, is located in Cambridge, Massachusetts, near Boston. Around...",97.7,"11,415",14.5703754,121.0802774,39.7837304,-100.445882
https://www.usnews.com/education/best-global-universities/stanford-university-243744,https://www.usnews.com/object/image/0000016c-9bb2-d1ec-a97f-9bba269e0000/$190816stanford_university0?size=responsive300&update-time=,Stanford University,https://www.usnews.com/static-atlas/assets/img/news/best-countries/flags-svg/USA.svg,United States,Stanford,#3,"Stanford University was founded in 1885 and is located in California’s Bay Area, around 30 miles south of San Francisco...",95.2,"16,164",37.4265407,-122.1703055,39.7837304,-100.445882
https://www.usnews.com/education/best-global-universities/university-of-california-berkeley-110635,https://www.usnews.com/object/image/0000014e-d06d-d8a0-adee-fffdae2b0000/$150727Berkeley?size=responsive300&update-time=1558448629952,University of California Berkeley,https://www.usnews.com/static-atlas/assets/img/news/best-countries/flags-svg/USA.svg,United States,Berkeley,#4,The University of California—Berkeley is situated roughly 15 miles from San Francisco in what is known as the Bay Area...,88.7,"40,921",37.8708393,-122.272863,39.7837304,-100.445882
https://www.usnews.com/education/best-global-universities/university-of-oxford-503637,https://www.usnews.com/object/image/0000014e-d0b5-d0b6-afdf-d0b7fab40000/$150727Oxford?size=responsive300&update-time=1438090160344,University of Oxford,https://www.usnews.com/static-atlas/assets/img/news/best-countries/flags-svg/GBR.svg,United Kingdom,Oxford,#5,"The exact date of the University of Oxford’s founding is unknown, but the school traces its roots back to at least 1096...",86.8,,51.7520131,-1.2578499,54.7023545,-3.2765753
https://www.usnews.com/education/best-global-universities/university-of-washington-seattle-236948,https://www.usnews.com/object/image/00000155-82e0-d393-a9f5-fae850c30000/$160624_university_of_washington?size=responsive300&update-time=1466789774392,University of Washington Seattle,https://www.usnews.com/static-atlas/assets/img/news/best-countries/flags-svg/USA.svg,United States,Seattle,#6,The University of Washington is a public institution that was founded in 1861. The school's oldest and largest campus in...,86.6,"47,727",47.6038321,-122.330062,39.7837304,-100.445882
https://www.usnews.com/education/best-global-universities/columbia-university-190150,https://www.usnews.com/object/image/0000014e-d115-d0b6-afdf-d1177b780000/$150727Columbia?size=responsive300&update-time=1476994392682,Columbia University,https://www.usnews.com/static-atlas/assets/img/news/best-countries/flags-svg/USA.svg,United States,New York City,#7,Columbia University is a private institution that was founded in 1754. It is located in the Upper West Side of New York...,86.5,"21,781",40.7127281,-74.0060152,39.7837304,-100.445882
https://www.usnews.com/education/best-global-universities/university-of-cambridge-502149,https://www.usnews.com/object/image/0000014e-d0dd-d0b6-afdf-d0dfa5e00000/$150727Cambridge?size=responsive300&update-time=1475263504175,University of Cambridge,https://www.usnews.com/static-atlas/assets/img/news/best-countries/flags-svg/GBR.svg,United Kingdom,Cambridge (U.K.),#8,"The University of Cambridge, located around 60 miles north of London, traces its history back to 1209. Around 19,000...",86.1,"20,385",52.2055314,0.1186637,54.7023545,-3.2765753
https://www.usnews.com/education/best-global-universities/california-institute-of-technology-110404,https://www.usnews.com/object/image/0000014e-d0ea-d0b6-afdf-d0fa07120000/$150727Caltech?size=responsive300&update-time=1438024214020,California Institute of Technology,https://www.usnews.com/static-atlas/assets/img/news/best-countries/flags-svg/USA.svg,United States,Pasadena,#9,"The California Institute of Technology, known as Caltech, was founded in 1891 as Throop University and received its...",85.6,"2,237",34.1476452,-118.1444779,39.7837304,-100.445882
https://www.usnews.com/education/best-global-universities/johns-hopkins-university-162928,https://www.usnews.com/object/image/00000155-82e7-d393-a9f5-faefdefc0000/$160624_johns_hopkins_university?size=responsive300&update-time=1466789856391,Johns Hopkins University,https://www.usnews.com/static-atlas/assets/img/news/best-countries/flags-svg/USA.svg,United States,Baltimore,#10,Johns Hopkins University is a private institution that was founded in 1876. The school has campuses located in and...,84.7,"17,584",39.2908816,-76.610759,39.7837304,-100.445882
https://www.usnews.com/education/best-global-universities/yale-university-130794,https://www.usnews.com/object/image/00000148-c6fa-d81c-a5f8-f6fb25e40000/$140930_Yale?size=responsive300&update-time=1412088338375,Yale University,https://www.usnews.com/static-atlas/assets/img/news/best-countries/flags-svg/USA.svg,United States,New Haven,#11,"Yale University was founded in 1701, making it one of the oldest institutions of higher education in the U.S. The...",84.6,"13,482",41.3082138,-72.9250518,39.7837304,-100.445882
https://www.usnews.com/education/best-global-universities/university-college-london-501693,https://www.usnews.com/object/image/00000157-8cae-dca0-ad7f-ccbf42550000/$161003_UCL?size=responsive300&update-time=1475534101225,University College London,https://www.usnews.com/static-atlas/assets/img/news/best-countries/flags-svg/GBR.svg,United Kingdom,London (U.K.),#12,"University College London, or UCL, is a public institution that was founded in 1826. It was the third university...",84.4,"36,900",51.5073359,-0.12765,54.7023545,-3.2765753
https://www.usnews.com/education/best-global-universities/imperial-college-london-505571,https://www.usnews.com/object/image/00000152-12d6-dafd-add2-b3f6ec120000/$160105_ImperialCollegeLondon?size=responsive300&update-time=1467838338695,Imperial College London,https://www.usnews.com/static-atlas/assets/img/news/best-countries/flags-svg/GBR.svg,United Kingdom,London (U.K.),#13,Imperial College London is a public institution that was founded in 1907. The university was previously a college of the...,84.3,"18,455",51.5073359,-0.12765,54.7023545,-3.2765753
https://www.usnews.com/education/best-global-universities/university-of-california-los-angeles-110662,https://www.usnews.com/object/image/0000014e-d0f0-d8a0-adee-fff068d40000/$150727UCLA?size=responsive300&update-time=1438024763242,University of California Los Angeles,https://www.usnews.com/static-atlas/assets/img/news/best-countries/flags-svg/USA.svg,United States,Los Angeles,#14,"The University of California—Los Angeles, commonly referred to as UCLA, is a public institution that was founded in...",84.2,"43,289",34.0536909,-118.242766,39.7837304,-100.445882
https://www.usnews.com/education/best-global-universities/university-of-pennsylvania-215062,https://www.usnews.com/object/image/00000147-d5c9-d2c9-a37f-ddffc0770000/$140814_upenn_courtyard_EDITORIALONLY?size=responsive300&update-time=1408993165080,University of Pennsylvania,https://www.usnews.com/static-atlas/assets/img/news/best-countries/flags-svg/USA.svg,United States,Philadelphia,#15,"The University of Pennsylvania, also known as Penn, was founded in 1740. The private, Ivy League institution is located...",84.0,"21,453",39.9527237,-75.1635262,39.7837304,-100.445882
https://www.usnews.com/education/best-global-universities/princeton-university-186131,https://www.usnews.com/object/image/00000155-82f6-d393-a9f5-fafea4040000/$160624_princeton?size=responsive300&update-time=1466789902421,Princeton University,https://www.usnews.com/static-atlas/assets/img/news/best-countries/flags-svg/USA.svg,United States,Princeton,#16,"Princeton University was founded in 1746, making it one of the oldest higher education institutions in the U.S. The...",83.9,,40.3492744,-74.6592958,39.7837304,-100.445882
https://www.usnews.com/education/best-global-universities/university-of-california-san-francisco-110699,https://www.usnews.com/object/image/00000157-f7fb-d7d1-aff7-f7fbfb590000/$161024_UCSF?size=responsive300&update-time=1558361309498,University of California San Francisco,https://www.usnews.com/static-atlas/assets/img/news/best-countries/flags-svg/USA.svg,United States,San Francisco,#16,The University of California—San Francisco is a public institution that was founded in 1864. The health sciences-focused...,83.9,,37.7790262,-122.419906,39.7837304,-100.445882
https://www.usnews.com/education/best-global-universities/university-of-toronto-499968,https://www.usnews.com/object/image/00000155-8341-d393-a9f5-fbe9b3ad0000/$160624_university_of_toronto?size=responsive300&update-time=1558360216697,University of Toronto,https://www.usnews.com/static-atlas/assets/img/news/best-countries/flags-svg/CAN.svg,Canada,Toronto,#18,The University of Toronto is a public institution that was founded in 1827. Around 80 percent of its students study at...,83.8,"77,468",43.6534817,-79.3839347,61.0666922,-107.991707
https://www.usnews.com/education/best-global-universities/university-of-michigan-170976,https://www.usnews.com/object/image/00000155-8352-d3ec-a9fd-cbdf64dd0000/$160624_university_of_michigan?size=responsive300&update-time=1467820566023,University of Michigan,https://www.usnews.com/static-atlas/assets/img/news/best-countries/flags-svg/USA.svg,United States,Ann Arbor,#19,The University of Michigan—Ann Arbor is a public institution that was founded in 1817 and made the city of Ann Arbor its...,83.4,"46,146",42.2681569,-83.7312291,39.7837304,-100.445882
https://www.usnews.com/education/best-global-universities/university-of-california-san-diego-110680,https://www.usnews.com/object/image/00000148-a3d3-d3b0-a3fc-b3dbb41f0000/$140923_UniversityofCaliforniaSanDiego?size=responsive300&update-time=1442948636561,University of California San Diego,https://www.usnews.com/static-atlas/assets/img/news/best-countries/flags-svg/USA.svg,United States,La Jolla,#20,The University of California—San Diego is a public institution that was established in 1960. It is located in the La...,83.3,,32.8401623,-117.2740777,39.7837304,-100.445882
https://www.usnews.com/education/best-global-universities/cornell-university-190415,https://www.usnews.com/object/image/00000158-2636-d7c3-a3ff-f7767d480000/$161102_Cornell?size=responsive300&update-time=1479223700443,Cornell University,https://www.usnews.com/static-atlas/assets/img/news/best-countries/flags-svg/USA.svg,United States,Ithaca,#21,"Cornell University is a private institution that was founded in 1865. The Ivy League school is located in Ithaca, New...",82.9,"24,027",42.4396039,-76.4968019,39.7837304,-100.445882
https://www.usnews.com/education/best-global-universities/university-of-chicago-144050,https://www.usnews.com/object/image/00000147-f4cb-d2c9-a37f-fdffc2c00000/$140820_universityofchicagocampus?size=responsive300&update-time=1444057324733,University of Chicago,https://www.usnews.com/static-atlas/assets/img/news/best-countries/flags-svg/USA.svg,United States,Chicago,#22,The University of Chicago is a private institution that was founded in 1890. The university is located in Chicago...,82.5,,41.8755616,-87.6244212,39.7837304,-100.445882
https://www.usnews.com/education/best-global-universities/northwestern-university-147767,https://www.usnews.com/object/image/00000158-6894-d46e-a7fe-6cb7c1ad0000/$161115_Northwestern?size=responsive300&update-time=1479223601773,Northwestern University,https://www.usnews.com/static-atlas/assets/img/news/best-countries/flags-svg/USA.svg,United States,Evanston,#24,Northwestern University is a private institution that was founded in 1851. The university has three campuses – the main...,81.2,"18,803",42.0447388,-87.6930459,39.7837304,-100.445882
https://www.usnews.com/education/best-global-universities/duke-university-198419,https://www.usnews.com/object/image/00000155-838b-d393-a9f5-fbabb8f80000/$160624_duke_university?size=responsive300&update-time=1467822498181,Duke University,https://www.usnews.com/static-atlas/assets/img/news/best-countries/flags-svg/USA.svg,United States,"Durham (North Carolina, U.S.)",#25,"Duke University traces its roots back to 1838, though the private institution didn’t receive its current name until...",80.7,,35.994,78.8986,39.7837304,-100.445882
https://www.usnews.com/education/best-global-universities/university-of-melbourne-501796,https://www.usnews.com/static-atlas/assets/img/education/education.svg,University of Melbourne,https://www.usnews.com/static-atlas/assets/img/news/best-countries/flags-svg/AUS.svg,Australia,Parkville,#27,The University of Melbourne is a public institution that was founded in 1853. The university has seven campuses...,80.3,,39.3868522,-76.55086176,-24.7761086,134.755
https://www.usnews.com/education/best-global-universities/university-of-sydney-505369,https://www.usnews.com/object/image/00000157-8ffc-dca0-ad7f-cfffa0010000/$161004_UniofSydney?size=responsive300&update-time=1475589551709,University of Sydney,https://www.usnews.com/static-atlas/assets/img/news/best-countries/flags-svg/AUS.svg,Australia,Sydney,#28,"The University of Sydney was founded in 1850, making it the oldest university in Australia. The public institution is...",79.9,"47,118",-33.8698439,151.2082848,-24.7761086,134.755
https://www.usnews.com/education/best-global-universities/new-york-university-193900,https://www.usnews.com/object/image/00000158-88a4-d975-af7f-ecb526090000/$161121_NYU?size=responsive300&update-time=1479761269740,New York University,https://www.usnews.com/static-atlas/assets/img/news/best-countries/flags-svg/USA.svg,United States,New York City,#31,"New York University, also known as NYU, is a private university that was founded in 1831. The university's main campus...",78.5,"36,337",40.7127281,-74.0060152,39.7837304,-100.445882
https://www.usnews.com/education/best-global-universities/washington-university-wustl-179867,https://www.usnews.com/object/image/00000158-688e-df5e-a979-6b9fcfec0000/$161115_WashU?size=responsive300&update-time=1479223571033,Washington University (WUSTL),https://www.usnews.com/static-atlas/assets/img/news/best-countries/flags-svg/USA.svg,United States,St. Louis,#32,"Washington University in St. Louis, also known as Wash U, is a private institution that was founded in 1853. The...",78.1,"14,761",38.6280278,-90.1910154,39.7837304,-100.445882
https://www.usnews.com/education/best-global-universities/kings-college-london-500330,https://www.usnews.com/static-atlas/assets/img/education/education.svg,King's College London,https://www.usnews.com/static-atlas/assets/img/news/best-countries/flags-svg/GBR.svg,United Kingdom,London (U.K.),#33,,77.9,"29,240",51.5073359,-0.12765,54.7023545,-3.2765753
https://www.usnews.com/education/best-global-universities/university-of-edinburgh-505832,https://www.usnews.com/object/image/00000157-8ca2-ddc3-af5f-cfab484d0000/$161003_UniofEdinburgh?size=responsive300&update-time=1475533316583,University of Edinburgh,https://www.usnews.com/static-atlas/assets/img/news/best-countries/flags-svg/GBR.svg,United Kingdom,Edinburgh,#34,The University of Edinburgh is a public institution that was founded in 1583. It is spread across five campuses in...,77.8,"32,800",55.9533456,-3.1883749,54.7023545,-3.2765753
https://www.usnews.com/education/best-global-universities/university-of-british-columbia-499976,https://www.usnews.com/object/image/00000155-7e9e-d3ec-a9fd-7fdfc7240000/$160623_UBC?size=responsive300&update-time=1466708333713,University of British Columbia,https://www.usnews.com/static-atlas/assets/img/news/best-countries/flags-svg/CAN.svg,Canada,Vancouver,#35,The University of British Columbia is a public institution located in the Canadian province of British Columbia. The...,77.5,"58,590",49.2608724,-123.113952,61.0666922,-107.991707
https://www.usnews.com/education/best-global-universities/university-of-queensland-500164,https://www.usnews.com/object/image/00000157-902c-dca0-ad7f-d8bffa2f0000/$161004_UQ?size=responsive300&update-time=1475592705802,University of Queensland,https://www.usnews.com/static-atlas/assets/img/news/best-countries/flags-svg/AUS.svg,Australia,Brisbane,#36,The University of Queensland Australia is a public institution that was established in 1909. It is located in and around...,77.2,"41,372",-27.4689682,153.0234991,-24.7761086,134.755
https://www.usnews.com/education/best-global-universities/monash-university-500301,https://www.usnews.com/object/image/00000153-ec2c-d802-ab7f-feacb9230000/$160406_MonashU?size=responsive300&update-time=1459956316556,Monash University,https://www.usnews.com/static-atlas/assets/img/news/best-countries/flags-svg/AUS.svg,Australia,Clayton,#37,Monash University is a public institution that was established in 1958. It is located in the state of Victoria in...,77.0,"58,725",33.5204959,-84.3591713,-24.7761086,134.755
https://www.usnews.com/education/best-global-universities/university-of-new-south-wales-sydney-502434,https://www.usnews.com/static-atlas/assets/img/education/education.svg,University of New South Wales Sydney,https://www.usnews.com/static-atlas/assets/img/news/best-countries/flags-svg/AUS.svg,Australia,Kensington,#37,,77.0,"45,133",51.4989948,-0.1991229,-24.7761086,134.755
https://www.usnews.com/education/best-global-universities/university-of-amsterdam-502957,https://www.usnews.com/static-atlas/assets/img/education/education.svg,University of Amsterdam,https://www.usnews.com/static-atlas/assets/img/news/best-countries/flags-svg/NLD.svg,Netherlands,Amsterdam,#39,The University of Amsterdam is a public institution that traces its roots back to 1632. The university is spread across...,76.8,,52.3730796,4.8924534,52.2434979,5.6343227
https://www.usnews.com/education/best-global-universities/university-of-north-carolina-chapel-hill-199120,https://www.usnews.com/object/image/00000156-2ee0-d816-abf7-aeeb86670000/$160727_university-of-north-carolina-chapel-hill-hero?size=responsive300&update-time=1562015481454,University of North Carolina Chapel Hill,https://www.usnews.com/static-atlas/assets/img/news/best-countries/flags-svg/USA.svg,United States,Chapel Hill,#41,University of North Carolina—Chapel Hill is a public institution that was founded in 1789. It has a total undergraduate...,76.7,"30,845",35.9131542,-79.05578,39.7837304,-100.445882
https://www.usnews.com/education/best-global-universities/university-of-copenhagen-503710,https://www.usnews.com/static-atlas/assets/img/education/education.svg,University of Copenhagen,https://www.usnews.com/static-atlas/assets/img/news/best-countries/flags-svg/DNK.svg,Denmark,Copenhagen,#42,,76.2,,55.6867243,12.5700724,55.670249,10.3333283
https://www.usnews.com/education/best-global-universities/university-of-texas-austin-228778,https://www.usnews.com/object/image/0000016c-9c02-df7f-adfe-fdd3e1ce0000/$190816university_of_texas--austin0?size=responsive300&update-time=,University of Texas Austin,https://www.usnews.com/static-atlas/assets/img/news/best-countries/flags-svg/USA.svg,United States,Austin,#43,,75.9,,30.2711286,-97.7436995,39.7837304,-100.445882
https://www.usnews.com/education/best-global-universities/utrecht-university-505962,https://www.usnews.com/object/image/00000157-7618-dca0-ad7f-7ebf35550000/$160929_UtrechtUniv?size=responsive300&update-time=1490132368352,Utrecht University,https://www.usnews.com/static-atlas/assets/img/news/best-countries/flags-svg/NLD.svg,Netherlands,Utrecht,#44,Utrecht University is a public institution that was founded in 1636. It is located in the city of Utrecht in the...,75.7,"32,532",52.0809856,5.127683969,52.2434979,5.6343227
https://www.usnews.com/education/best-global-universities/university-of-pittsburgh-215293,https://www.usnews.com/object/image/0000016c-9bfb-d1ec-a97f-9bfbdf8b0000/$190816university_of_pittsburgh2?size=responsive300&update-time=,University of Pittsburgh,https://www.usnews.com/static-atlas/assets/img/news/best-countries/flags-svg/USA.svg,United States,Pittsburgh,#45,,75.6,"26,575",40.4416941,-79.9900861,39.7837304,-100.445882
https://www.usnews.com/education/best-global-universities/georgia-institute-of-technology-139755,https://www.usnews.com/static-atlas/assets/img/education/education.svg,Georgia Institute of Technology,https://www.usnews.com/static-atlas/assets/img/news/best-countries/flags-svg/USA.svg,United States,Atlanta,#51,,74.9,,33.7489924,-84.3902644,39.7837304,-100.445882
https://www.usnews.com/education/best-global-universities/mcgill-university-499986,https://www.usnews.com/object/image/00000156-6b7c-d0b3-ad56-ff7dbd8b0000/$160808_McGillUniversity?size=responsive300&update-time=1470682544421,McGill University,https://www.usnews.com/static-atlas/assets/img/news/best-countries/flags-svg/CAN.svg,Canada,Montreal,#54,"McGill University is a public institution that was founded in 1821 and is located in Quebec, Canada. The university has...",74.6,"32,309",45.5031824,-73.5698065,61.0666922,-107.991707
https://www.usnews.com/education/best-global-universities/ohio-state-university-204796,https://www.usnews.com/object/image/0000016c-9c08-d1ec-a97f-9c0a322b0000/$190816ohio_state_university--columbus2?size=responsive300&update-time=,Ohio State University,https://www.usnews.com/static-atlas/assets/img/news/best-countries/flags-svg/USA.svg,United States,Columbus,#55,,74.4,"55,814",39.9622601,-83.0007065,39.7837304,-100.445882
https://www.usnews.com/education/best-global-universities/university-of-maryland-college-park-163286,https://www.usnews.com/static-atlas/assets/img/education/education.svg,University of Maryland College Park,https://www.usnews.com/static-atlas/assets/img/news/best-countries/flags-svg/USA.svg,United States,College Park,#57,,74.3,"33,775",38.980666,-76.9369189,39.7837304,-100.445882
https://www.usnews.com/education/best-global-universities/university-of-minnesota-twin-cities-174066,https://www.usnews.com/object/image/0000016c-9c0e-d1ec-a97f-9c0e5cd40000/$190816university_of_minnesota--twin_cities2?size=responsive300&update-time=,University of Minnesota Twin Cities,https://www.usnews.com/static-atlas/assets/img/news/best-countries/flags-svg/USA.svg,United States,Minneapolis,#57,,74.3,"45,276",44.9772995,-93.2654692,39.7837304,-100.445882
https://www.usnews.com/education/best-global-universities/australian-national-university-503825,https://www.usnews.com/object/image/00000157-9042-ddc3-af5f-dbebc79a0000/$161004_ANU?size=responsive300&update-time=1475594208348,Australian National University,https://www.usnews.com/static-atlas/assets/img/news/best-countries/flags-svg/AUS.svg,Australia,Canberra,#62,The Australian National University was founded in 1946. The public institution’s main Acton Campus is located in...,73.9,"16,758",-35.2975906,149.1012676,-24.7761086,134.755
https://www.usnews.com/education/best-global-universities/university-of-manchester-500273,https://www.usnews.com/static-atlas/assets/img/education/education.svg,University of Manchester,https://www.usnews.com/static-atlas/assets/img/news/best-countries/flags-svg/GBR.svg,United Kingdom,Manchester,#63,,73.8,,53.4794892,-2.2451148,54.7023545,-3.2765753
https://www.usnews.com/education/best-global-universities/university-of-wisconsin-madison-240444,https://www.usnews.com/object/image/0000016c-9c0a-d1ec-a97f-9c0ac2330000/$190816university_of_wisconsin--madison18?size=responsive300&update-time=,University of Wisconsin Madison,https://www.usnews.com/static-atlas/assets/img/news/best-countries/flags-svg/USA.svg,United States,Madison,#63,"The University of Wisconsin—Madison, founded in 1848, is a public university located in the U.S. Midwest. Madison is the...",73.8,"40,701",43.074761,-89.3837613,39.7837304,-100.445882
https://www.usnews.com/education/best-global-universities/erasmus-university-rotterdam-500349,https://www.usnews.com/static-atlas/assets/img/education/education.svg,Erasmus University Rotterdam,https://www.usnews.com/static-atlas/assets/img/news/best-countries/flags-svg/NLD.svg,Netherlands,Rotterdam,#65,"Erasmus University Rotterdam is a public institution that traces its roots back to 1913. However, the university did not...",73.4,,51.9244424,4.47775,52.2434979,5.6343227
https://www.usnews.com/education/best-global-universities/university-of-california-santa-barbara-110705,https://www.usnews.com/object/image/00000158-689d-d46e-a7fe-6cbf99a30000/$161115_UCSantaBarbara?size=responsive300&update-time=1479223988936,University of California Santa Barbara,https://www.usnews.com/static-atlas/assets/img/news/best-countries/flags-svg/USA.svg,United States,Santa Barbara,#67,"The University of California—Santa Barbara, or UCSB, is a public university that traces its roots back to 1891. The...",73.3,,34.4221319,-119.702667,39.7837304,-100.445882
https://www.usnews.com/education/best-global-universities/boston-university-164988,https://www.usnews.com/static-atlas/assets/img/education/education.svg,Boston University,https://www.usnews.com/static-atlas/assets/img/news/best-countries/flags-svg/USA.svg,United States,Boston,#70,,73.1,"27,243",42.3554334,-71.060511,39.7837304,-100.445882
https://www.usnews.com/education/best-global-universities/university-of-colorado-boulder-126614,https://www.usnews.com/static-atlas/assets/img/education/education.svg,University of Colorado Boulder,https://www.usnews.com/static-atlas/assets/img/news/best-countries/flags-svg/USA.svg,United States,Boulder,#70,,73.1,"34,928",40.0149856,-105.270545,39.7837304,-100.445882
https://www.usnews.com/education/best-global-universities/emory-university-139658,https://www.usnews.com/static-atlas/assets/img/education/education.svg,Emory University,https://www.usnews.com/static-atlas/assets/img/news/best-countries/flags-svg/USA.svg,United States,Atlanta,#72,,73.0,"13,190",33.7489924,-84.3902644,39.7837304,-100.445882
https://www.usnews.com/education/best-global-universities/university-of-california-davis-110644,https://www.usnews.com/static-atlas/assets/img/education/education.svg,University of California Davis,https://www.usnews.com/static-atlas/assets/img/news/best-countries/flags-svg/USA.svg,United States,Davis,#73,,72.9,,40.7474784,-92.3965311,39.7837304,-100.445882
https://www.usnews.com/education/best-global-universities/leiden-university-503069,https://www.usnews.com/static-atlas/assets/img/education/education.svg,Leiden University,https://www.usnews.com/static-atlas/assets/img/news/best-countries/flags-svg/NLD.svg,Netherlands,Leiden,#74,"Leiden University is a public institution that was founded in 1575, making it the oldest university in the Netherlands...",72.8,,52.1594747,4.4908843,52.2434979,5.6343227
https://www.usnews.com/education/best-global-universities/university-of-adelaide-504015,https://www.usnews.com/static-atlas/assets/img/education/education.svg,University of Adelaide,https://www.usnews.com/static-atlas/assets/img/news/best-countries/flags-svg/AUS.svg,Australia,Adelaide,#74,,72.8,"23,102",-34.9281805,138.5999312,-24.7761086,134.755
https://www.usnews.com/education/best-global-universities/university-of-glasgow-500110,https://www.usnews.com/static-atlas/assets/img/education/education.svg,University of Glasgow,https://www.usnews.com/static-atlas/assets/img/news/best-countries/flags-svg/GBR.svg,United Kingdom,Glasgow,#74,,72.8,"28,250",55.861155,-4.2501687,54.7023545,-3.2765753
https://www.usnews.com/education/best-global-universities/university-of-illinois-urbana-champaign-145637,https://www.usnews.com/static-atlas/assets/img/education/education.svg,University of Illinois Urbana-Champaign,https://www.usnews.com/static-atlas/assets/img/news/best-countries/flags-svg/USA.svg,United States,Champaign,#74,,72.8,,40.1164841,-88.2430932,39.7837304,-100.445882
https://www.usnews.com/education/best-global-universities/vanderbilt-university-221999,https://www.usnews.com/static-atlas/assets/img/education/education.svg,Vanderbilt University,https://www.usnews.com/static-atlas/assets/img/news/best-countries/flags-svg/USA.svg,United States,Nashville,#78,,72.7,,36.1622767,-86.7742984,39.7837304,-100.445882
https://www.usnews.com/education/best-global-universities/university-of-southern-california-123961,https://www.usnews.com/static-atlas/assets/img/education/education.svg,University of Southern California,https://www.usnews.com/static-atlas/assets/img/news/best-countries/flags-svg/USA.svg,United States,Los Angeles,#80,,72.5,"42,502",34.0536909,-118.242766,39.7837304,-100.445882
https://www.usnews.com/education/best-global-universities/university-of-tokyo-500248,https://www.usnews.com/object/image/00000157-013b-d00c-a1d7-4bbb24f90000/$160906_UTokyo?size=responsive300&update-time=1473194841577,University of Tokyo,https://www.usnews.com/static-atlas/assets/img/news/best-countries/flags-svg/JPN.svg,Japan,Tokyo,#81,"The University of Tokyo, also known as UTokyo or Todai, is a Japanese national university that was founded in 1877. The...",72.4,"26,112",35.6812665,139.757653,36.5748441,139.2394179
https://www.usnews.com/education/best-global-universities/vrije-universiteit-amsterdam-500669,https://www.usnews.com/static-atlas/assets/img/education/education.svg,Vrije Universiteit Amsterdam,https://www.usnews.com/static-atlas/assets/img/news/best-countries/flags-svg/NLD.svg,Netherlands,Amsterdam,#82,VU University Amsterdam is a public institution that was founded in 1880. The Dutch university is located in the Zuidas...,72.3,,52.3730796,4.8924534,52.2434979,5.6343227
https://www.usnews.com/education/best-global-universities/university-of-western-australia-503979,https://www.usnews.com/static-atlas/assets/img/education/education.svg,University of Western Australia,https://www.usnews.com/static-atlas/assets/img/news/best-countries/flags-svg/AUS.svg,Australia,Crawley,#83,,72.2,"18,405",51.1103444,-0.1801094,-24.7761086,134.755
https://www.usnews.com/education/best-global-universities/pennsylvania-state-university-214777,https://www.usnews.com/static-atlas/assets/img/education/education.svg,Pennsylvania State University,https://www.usnews.com/static-atlas/assets/img/news/best-countries/flags-svg/USA.svg,United States,University Park,#84,,71.9,"46,863",41.4400344,-87.683377,39.7837304,-100.445882
https://www.usnews.com/education/best-global-universities/university-of-california-irvine-110653,https://www.usnews.com/static-atlas/assets/img/education/education.svg,University of California Irvine,https://www.usnews.com/static-atlas/assets/img/news/best-countries/flags-svg/USA.svg,United States,Irvine,#84,,71.9,"36,655",33.6856969,-117.8259819,39.7837304,-100.445882
https://www.usnews.com/education/best-global-universities/university-of-groningen-500967,https://www.usnews.com/static-atlas/assets/img/education/education.svg,University of Groningen,https://www.usnews.com/static-atlas/assets/img/news/best-countries/flags-svg/NLD.svg,Netherlands,Groningen,#88,"The University of Groningen is a public institution that was founded in 1614, making it one of the oldest universities...",71.5,"30,009",53.2190652,6.5680077,52.2434979,5.6343227
https://www.usnews.com/education/best-global-universities/university-of-birmingham-501524,https://www.usnews.com/static-atlas/assets/img/education/education.svg,University of Birmingham,https://www.usnews.com/static-atlas/assets/img/news/best-countries/flags-svg/GBR.svg,United Kingdom,Birmingham (U.K.),#89,,71.3,"32,560",52.4796992,-1.9026911,54.7023545,-3.2765753
https://www.usnews.com/education/best-global-universities/wageningen-university-research-501112,https://www.usnews.com/static-atlas/assets/img/education/education.svg,Wageningen University & Research,https://www.usnews.com/static-atlas/assets/img/news/best-countries/flags-svg/NLD.svg,Netherlands,Wageningen,#89,,71.3,"15,404",51.9685817,5.668298062,52.2434979,5.6343227
https://www.usnews.com/education/best-global-universities/university-of-bristol-505342,https://www.usnews.com/static-atlas/assets/img/education/education.svg,University of Bristol,https://www.usnews.com/static-atlas/assets/img/news/best-countries/flags-svg/GBR.svg,United Kingdom,Bristol,#93,,70.7,"25,660",51.4538022,-2.5972985,54.7023545,-3.2765753
https://www.usnews.com/education/best-global-universities/university-of-florida-134130,https://www.usnews.com/static-atlas/assets/img/education/education.svg,University of Florida,https://www.usnews.com/static-atlas/assets/img/news/best-countries/flags-svg/USA.svg,United States,Gainesville,#98,,70.4,"46,807",29.6519684,-82.3249846,39.7837304,-100.445882
https://www.usnews.com/education/best-global-universities/queen-mary-university-london-503389,https://www.usnews.com/static-atlas/assets/img/education/education.svg,Queen Mary University London,https://www.usnews.com/static-atlas/assets/img/news/best-countries/flags-svg/GBR.svg,United Kingdom,London (U.K.),#100,,70.2,"20,485",51.5073359,-0.12765,54.7023545,-3.2765753
https://www.usnews.com/education/best-global-universities/university-of-southampton-504892,https://www.usnews.com/static-atlas/assets/img/education/education.svg,University of Southampton,https://www.usnews.com/static-atlas/assets/img/news/best-countries/flags-svg/GBR.svg,United Kingdom,Southampton,#104,,69.7,,50.9025349,-1.404189,54.7023545,-3.2765753
https://www.usnews.com/education/best-global-universities/university-of-california-santa-cruz-110714,https://www.usnews.com/object/image/00000158-691d-df5e-a979-6b9f4e120000/$161115_UC_santacruz.jpg?size=responsive300&update-time=1479232363223,University of California Santa Cruz,https://www.usnews.com/static-atlas/assets/img/news/best-countries/flags-svg/USA.svg,United States,Santa Cruz,#105,"The University of California—Santa Cruz, or UCSC, is a public institution that was founded in 1965. The school is...",69.5,"19,494",28.469648,-16.2540884,39.7837304,-100.445882
https://www.usnews.com/education/best-global-universities/radboud-university-nijmegen-501519,https://www.usnews.com/static-atlas/assets/img/education/education.svg,Radboud University Nijmegen,https://www.usnews.com/static-atlas/assets/img/news/best-countries/flags-svg/NLD.svg,Netherlands,Nijmegen,#106,,69.4,"21,979",51.84257485,5.838960629,52.2434979,5.6343227
https://www.usnews.com/education/best-global-universities/university-of-arizona-104179,https://www.usnews.com/static-atlas/assets/img/education/education.svg,University of Arizona,https://www.usnews.com/static-atlas/assets/img/news/best-countries/flags-svg/USA.svg,United States,Tucson,#108,,69.2,"39,797",32.2228765,-110.9748477,39.7837304,-100.445882
https://www.usnews.com/education/best-global-universities/aarhus-university-502125,https://www.usnews.com/static-atlas/assets/img/education/education.svg,Aarhus University,https://www.usnews.com/static-atlas/assets/img/news/best-countries/flags-svg/DNK.svg,Denmark,Aarhus,#109,,69.1,"26,475",56.1496278,10.2134046,55.670249,10.3333283
https://www.usnews.com/education/best-global-universities/university-of-technology-sydney-505153,https://www.usnews.com/static-atlas/assets/img/education/education.svg,University of Technology Sydney,https://www.usnews.com/static-atlas/assets/img/news/best-countries/flags-svg/AUS.svg,Australia,Ultimo,#112,,69.0,,46.5119943,10.89949269,-24.7761086,134.755
https://www.usnews.com/education/best-global-universities/michigan-state-university-171100,https://www.usnews.com/static-atlas/assets/img/education/education.svg,Michigan State University,https://www.usnews.com/static-atlas/assets/img/news/best-countries/flags-svg/USA.svg,United States,East Lansing,#116,,68.8,"45,465",42.7320307,-84.4721678,39.7837304,-100.445882
https://www.usnews.com/education/best-global-universities/carnegie-mellon-university-211440,https://www.usnews.com/static-atlas/assets/img/education/education.svg,Carnegie Mellon University,https://www.usnews.com/static-atlas/assets/img/news/best-countries/flags-svg/USA.svg,United States,Pittsburgh,#118,,68.7,,40.4416941,-79.9900861,39.7837304,-100.445882
https://www.usnews.com/education/best-global-universities/university-of-virginia-234076,https://www.usnews.com/static-atlas/assets/img/education/education.svg,University of Virginia,https://www.usnews.com/static-atlas/assets/img/news/best-countries/flags-svg/USA.svg,United States,Charlottesville,#119,,68.6,,38.029306,-78.4766781,39.7837304,-100.445882
https://www.usnews.com/education/best-global-universities/brown-university-217156,https://www.usnews.com/static-atlas/assets/img/education/education.svg,Brown University,https://www.usnews.com/static-atlas/assets/img/news/best-countries/flags-svg/USA.svg,United States,Providence,#129,,67.5,"10,037",41.8239891,-71.4128343,39.7837304,-100.445882
https://www.usnews.com/education/best-global-universities/university-of-sheffield-503922,https://www.usnews.com/static-atlas/assets/img/education/education.svg,University of Sheffield,https://www.usnews.com/static-atlas/assets/img/news/best-countries/flags-svg/GBR.svg,United Kingdom,Sheffield,#134,,67.3,"27,840",53.3806626,-1.4702278,54.7023545,-3.2765753
https://www.usnews.com/education/best-global-universities/university-of-alberta-499977,https://www.usnews.com/object/image/00000155-9d06-d3ec-a9fd-dddfb0a90000/$160629_universityofalberta?size=responsive300&update-time=1467218510381,University of Alberta,https://www.usnews.com/static-atlas/assets/img/news/best-countries/flags-svg/CAN.svg,Canada,Edmonton,#136,The University of Alberta is a public institution that was founded in 1908. Located in the province of Alberta in...,67.1,"32,338",53.5462055,-113.491241,61.0666922,-107.991707
https://www.usnews.com/education/best-global-universities/mcmaster-university-502196,https://www.usnews.com/static-atlas/assets/img/education/education.svg,McMaster University,https://www.usnews.com/static-atlas/assets/img/news/best-countries/flags-svg/CAN.svg,Canada,Hamilton,#138,McMaster University is a public institution that was founded in 1887. The Canadian university's main campus is in a...,67.0,,43.2560802,-79.8728583,61.0666922,-107.991707
https://www.usnews.com/education/best-global-universities/kyoto-university-505388,https://www.usnews.com/object/image/0000014e-1cf4-d7a8-ab6e-def619550000/$150622_Kyoto_University_1.jpg?size=responsive300&update-time=1435004867754,Kyoto University,https://www.usnews.com/static-atlas/assets/img/news/best-countries/flags-svg/JPN.svg,Japan,Kyoto,#140,Kyoto University is a Japanese national university that was founded in 1897. Originally known as Kyoto Imperial...,66.9,,35.021041,135.7556075,36.5748441,139.2394179
https://www.usnews.com/education/best-global-universities/purdue-university-west-lafayette-campus-243780,https://www.usnews.com/static-atlas/assets/img/education/education.svg,Purdue University West Lafayette Campus,https://www.usnews.com/static-atlas/assets/img/news/best-countries/flags-svg/USA.svg,United States,West Lafayette,#140,,66.9,,40.4258686,-86.9080655,39.7837304,-100.445882
https://www.usnews.com/education/best-global-universities/university-of-leeds-505265,https://www.usnews.com/static-atlas/assets/img/education/education.svg,University of Leeds,https://www.usnews.com/static-atlas/assets/img/news/best-countries/flags-svg/GBR.svg,United Kingdom,Leeds,#140,,66.9,,53.7974185,-1.5437941,54.7023545,-3.2765753
https://www.usnews.com/education/best-global-universities/rutgers-state-university-new-brunswick-186380,https://www.usnews.com/static-atlas/assets/img/education/education.svg,Rutgers State University New Brunswick,https://www.usnews.com/static-atlas/assets/img/news/best-countries/flags-svg/USA.svg,United States,Piscataway Township,#143,,66.8,"46,158",40.5462553,-74.4660408,39.7837304,-100.445882
https://www.usnews.com/education/best-global-universities/university-of-nottingham-503548,https://www.usnews.com/static-atlas/assets/img/education/education.svg,University of Nottingham,https://www.usnews.com/static-atlas/assets/img/news/best-countries/flags-svg/GBR.svg,United Kingdom,Nottingham,#145,,66.7,,52.9534193,-1.1496461,54.7023545,-3.2765753
https://www.usnews.com/education/best-global-universities/university-of-liverpool-506611,https://www.usnews.com/static-atlas/assets/img/education/education.svg,University of Liverpool,https://www.usnews.com/static-atlas/assets/img/news/best-countries/flags-svg/GBR.svg,United Kingdom,Liverpool,#146,,66.6,"27,145",53.4071991,-2.99168,54.7023545,-3.2765753
https://www.usnews.com/education/best-global-universities/texas-am-university-college-station-228723,https://www.usnews.com/static-atlas/assets/img/education/education.svg,Texas A&M University College Station,https://www.usnews.com/static-atlas/assets/img/news/best-countries/flags-svg/USA.svg,United States,College Station,#148,,66.5,"62,931",30.5955289,-96.3071042,39.7837304,-100.445882
https://www.usnews.com/education/best-global-universities/cardiff-university-500071,https://www.usnews.com/static-atlas/assets/img/education/education.svg,Cardiff University,https://www.usnews.com/static-atlas/assets/img/news/best-countries/flags-svg/GBR.svg,United Kingdom,Cardiff,#152,,66.1,,51.4816546,-3.1791934,54.7023545,-3.2765753
https://www.usnews.com/education/best-global-universities/case-western-reserve-university-201645,https://www.usnews.com/static-atlas/assets/img/education/education.svg,Case Western Reserve University,https://www.usnews.com/static-atlas/assets/img/news/best-countries/flags-svg/USA.svg,United States,Cleveland,#152,,66.1,"10,953",41.4996574,-81.6936772,39.7837304,-100.445882
https://www.usnews.com/education/best-global-universities/indiana-university-bloomington-151351,https://www.usnews.com/static-atlas/assets/img/education/education.svg,Indiana University Bloomington,https://www.usnews.com/static-atlas/assets/img/news/best-countries/flags-svg/USA.svg,United States,Bloomington,#152,,66.1,,39.1670396,-86.5342881,39.7837304,-100.445882
https://www.usnews.com/education/best-global-universities/university-of-exeter-502021,https://www.usnews.com/static-atlas/assets/img/education/education.svg,University of Exeter,https://www.usnews.com/static-atlas/assets/img/news/best-countries/flags-svg/GBR.svg,United Kingdom,Exeter,#152,,66.1,"24,940",50.7255794,-3.5269497,54.7023545,-3.2765753
https://www.usnews.com/education/best-global-universities/arizona-state-university-tempe-104151,https://www.usnews.com/static-atlas/assets/img/education/education.svg,Arizona State University-Tempe,https://www.usnews.com/static-atlas/assets/img/news/best-countries/flags-svg/USA.svg,United States,Tempe,#156,,65.9,"50,027",33.4255117,-111.9400164,39.7837304,-100.445882
https://www.usnews.com/education/best-global-universities/newcastle-university-uk-503247,https://www.usnews.com/static-atlas/assets/img/education/education.svg,Newcastle University - UK,https://www.usnews.com/static-atlas/assets/img/news/best-countries/flags-svg/GBR.svg,United Kingdom,Newcastle upon Tyne,#156,,65.9,"26,920",54.9738474,-1.6131572,54.7023545,-3.2765753
https://www.usnews.com/education/best-global-universities/universite-de-montreal-506159,https://www.usnews.com/object/image/00000155-9de0-d393-a9f5-ffe8d2810000/$160629_universityofmontreal?size=responsive300&update-time=1467232711163,Universite de Montreal,https://www.usnews.com/static-atlas/assets/img/news/best-countries/flags-svg/CAN.svg,Canada,Montreal,#156,The University of Montreal is a public institution that traces its roots back to 1878. Initially a branch of the...,65.9,"38,189",45.5031824,-73.5698065,61.0666922,-107.991707
https://www.usnews.com/education/best-global-universities/curtin-university-503377,https://www.usnews.com/static-atlas/assets/img/education/education.svg,Curtin University,https://www.usnews.com/static-atlas/assets/img/news/best-countries/flags-svg/AUS.svg,Australia,Bentley,#160,,65.8,"29,999",37.8861228,-97.516988,-24.7761086,134.755
https://www.usnews.com/education/best-global-universities/university-of-massachusetts-amherst-166629,https://www.usnews.com/static-atlas/assets/img/education/education.svg,University of Massachusetts Amherst,https://www.usnews.com/static-atlas/assets/img/news/best-countries/flags-svg/USA.svg,United States,Amherst,#160,,65.8,,42.3685658,-72.505714,39.7837304,-100.445882
https://www.usnews.com/education/best-global-universities/university-of-warwick-503443,https://www.usnews.com/static-atlas/assets/img/education/education.svg,University of Warwick,https://www.usnews.com/static-atlas/assets/img/news/best-countries/flags-svg/GBR.svg,United Kingdom,Coventry,#163,,65.7,"23,895",52.4081812,-1.510477,54.7023545,-3.2765753
https://www.usnews.com/education/best-global-universities/technical-university-of-denmark-503016,https://www.usnews.com/static-atlas/assets/img/education/education.svg,Technical University of Denmark,https://www.usnews.com/static-atlas/assets/img/news/best-countries/flags-svg/DNK.svg,Denmark,Kongens Lyngby,#165,,65.5,"9,599",55.7718649,12.5051413,55.670249,10.3333283
https://www.usnews.com/education/best-global-universities/university-of-utah-230764,https://www.usnews.com/static-atlas/assets/img/education/education.svg,University of Utah,https://www.usnews.com/static-atlas/assets/img/news/best-countries/flags-svg/USA.svg,United States,Salt Lake City,#167,,65.4,"30,967",40.7596198,-111.886797,39.7837304,-100.445882
https://www.usnews.com/education/best-global-universities/delft-university-of-technology-505496,https://www.usnews.com/static-atlas/assets/img/education/education.svg,Delft University of Technology,https://www.usnews.com/static-atlas/assets/img/news/best-countries/flags-svg/NLD.svg,Netherlands,Delft,#169,,65.1,,51.9994572,4.362724539,52.2434979,5.6343227
https://www.usnews.com/education/best-global-universities/university-of-rochester-195030,https://www.usnews.com/static-atlas/assets/img/education/education.svg,University of Rochester,https://www.usnews.com/static-atlas/assets/img/news/best-countries/flags-svg/USA.svg,United States,Rochester,#170,,64.8,"10,364",43.157285,-77.615214,39.7837304,-100.445882
https://www.usnews.com/education/best-global-universities/queensland-university-of-technology-qut-504619,https://www.usnews.com/static-atlas/assets/img/education/education.svg,Queensland University of Technology (QUT),https://www.usnews.com/static-atlas/assets/img/news/best-countries/flags-svg/AUS.svg,Australia,Brisbane,#171,,64.7,"37,165",-27.4689682,153.0234991,-24.7761086,134.755
https://www.usnews.com/education/best-global-universities/university-of-calgary-499975,https://www.usnews.com/static-atlas/assets/img/education/education.svg,University of Calgary,https://www.usnews.com/static-atlas/assets/img/news/best-countries/flags-svg/CAN.svg,Canada,Calgary,#175,,64.2,"33,560",51.0460954,-114.065465,61.0666922,-107.991707
https://www.usnews.com/education/best-global-universities/rice-university-227757,https://www.usnews.com/static-atlas/assets/img/education/education.svg,Rice University,https://www.usnews.com/static-atlas/assets/img/news/best-countries/flags-svg/USA.svg,United States,Houston,#180,,64.0,"7,068",29.7589382,-95.3676974,39.7837304,-100.445882
https://www.usnews.com/education/best-global-universities/university-of-iowa-153658,https://www.usnews.com/static-atlas/assets/img/education/education.svg,University of Iowa,https://www.usnews.com/static-atlas/assets/img/news/best-countries/flags-svg/USA.svg,United States,Iowa City,#180,,64.0,"29,257",41.6612561,-91.5299106,39.7837304,-100.445882
https://www.usnews.com/education/best-global-universities/lancaster-university-504720,https://www.usnews.com/static-atlas/assets/img/education/education.svg,Lancaster University,https://www.usnews.com/static-atlas/assets/img/news/best-countries/flags-svg/GBR.svg,United Kingdom,Lancaster,#182,,63.9,"14,665",40.03813,-76.3056686,54.7023545,-3.2765753
https://www.usnews.com/education/best-global-universities/maastricht-university-505759,https://www.usnews.com/static-atlas/assets/img/education/education.svg,Maastricht University,https://www.usnews.com/static-atlas/assets/img/news/best-countries/flags-svg/NLD.svg,Netherlands,Maastricht,#186,,63.6,,50.8512438,5.6909768,52.2434979,5.6343227
https://www.usnews.com/education/best-global-universities/university-of-california-riverside-110671,https://www.usnews.com/static-atlas/assets/img/education/education.svg,University of California Riverside,https://www.usnews.com/static-atlas/assets/img/news/best-countries/flags-svg/USA.svg,United States,Riverside,#186,,63.6,"24,515",33.9533546,-117.3961623,39.7837304,-100.445882
https://www.usnews.com/education/best-global-universities/university-of-wollongong-503195,https://www.usnews.com/static-atlas/assets/img/education/education.svg,University of Wollongong,https://www.usnews.com/static-atlas/assets/img/news/best-countries/flags-svg/AUS.svg,Australia,Wollongong,#186,,63.6,"19,169",-34.4278083,150.893054,-24.7761086,134.755
https://www.usnews.com/education/best-global-universities/university-of-waterloo-499966,https://www.usnews.com/static-atlas/assets/img/education/education.svg,University of Waterloo,https://www.usnews.com/static-atlas/assets/img/news/best-countries/flags-svg/CAN.svg,Canada,Waterloo,#191,The University of Waterloo is a public institution that was founded in 1957. The Canadian university's main campus is in...,63.5,"34,306",42.498275,-92.3328743,61.0666922,-107.991707
https://www.usnews.com/education/best-global-universities/macquarie-university-502013,https://www.usnews.com/static-atlas/assets/img/education/education.svg,Macquarie University,https://www.usnews.com/static-atlas/assets/img/news/best-countries/flags-svg/AUS.svg,Australia,North Ryde,#192,,63.4,"30,561",-33.7975472,151.127306,-24.7761086,134.755
https://www.usnews.com/education/best-global-universities/northeastern-university-167358,https://www.usnews.com/static-atlas/assets/img/education/education.svg,Northeastern University,https://www.usnews.com/static-atlas/assets/img/news/best-countries/flags-svg/USA.svg,United States,Boston,#194,,63.3,"21,211",42.3554334,-71.060511,39.7837304,-100.445882
https://www.usnews.com/education/best-global-universities/swinburne-university-of-technology-528823,https://www.usnews.com/static-atlas/assets/img/education/education.svg,Swinburne University of Technology,https://www.usnews.com/static-atlas/assets/img/news/best-countries/flags-svg/AUS.svg,Australia,Hawthorn,#199,,63.0,"15,327",-37.8244246,145.0317207,-24.7761086,134.755
https://www.usnews.com/education/best-global-universities/griffith-university-501686,https://www.usnews.com/static-atlas/assets/img/education/education.svg,Griffith University,https://www.usnews.com/static-atlas/assets/img/news/best-countries/flags-svg/AUS.svg,Australia,Nathan,#203,,62.8,"35,900",-27.548511,153.0523165,-24.7761086,134.755
https://www.usnews.com/education/best-global-universities/university-of-cincinnati-201885,https://www.usnews.com/static-atlas/assets/img/education/education.svg,University of Cincinnati,https://www.usnews.com/static-atlas/assets/img/news/best-countries/flags-svg/USA.svg,United States,Cincinnati,#203,,62.8,,39.1014537,-84.5124602,39.7837304,-100.445882
https://www.usnews.com/education/best-global-universities/state-university-of-new-york-suny-stony-brook-196097,https://www.usnews.com/static-atlas/assets/img/education/education.svg,State University of New York (SUNY) Stony Brook,https://www.usnews.com/static-atlas/assets/img/news/best-countries/flags-svg/USA.svg,United States,Stony Brook,#206,,62.7,"25,836",40.9256538,-73.140943,39.7837304,-100.445882
https://www.usnews.com/education/best-global-universities/royal-melbourne-institute-of-technology-rmit-503858,https://www.usnews.com/static-atlas/assets/img/education/education.svg,Royal Melbourne Institute of Technology (RMIT),https://www.usnews.com/static-atlas/assets/img/news/best-countries/flags-svg/AUS.svg,Australia,Melbourne (Australia),#209,,62.5,"32,692",-37.8142176,144.9631608,-24.7761086,134.755
https://www.usnews.com/education/best-global-universities/university-of-ottawa-499972,https://www.usnews.com/static-atlas/assets/img/education/education.svg,University of Ottawa,https://www.usnews.com/static-atlas/assets/img/news/best-countries/flags-svg/CAN.svg,Canada,Ottawa,#215,,62.2,"36,670",45.4208777,-75.6901106,61.0666922,-107.991707
https://www.usnews.com/education/best-global-universities/deakin-university-504884,https://www.usnews.com/static-atlas/assets/img/education/education.svg,Deakin University,https://www.usnews.com/static-atlas/assets/img/news/best-countries/flags-svg/AUS.svg,Australia,Burwood,#217,,62.1,"43,080",-33.8858088,151.1024805,-24.7761086,134.755
https://www.usnews.com/education/best-global-universities/university-of-leicester-501221,https://www.usnews.com/static-atlas/assets/img/education/education.svg,University of Leicester,https://www.usnews.com/static-atlas/assets/img/news/best-countries/flags-svg/GBR.svg,United Kingdom,Leicester,#217,,62.1,,52.6362,-1.1331969,54.7023545,-3.2765753
https://www.usnews.com/education/best-global-universities/university-of-tennessee-knoxville-221759,https://www.usnews.com/static-atlas/assets/img/education/education.svg,University of Tennessee Knoxville,https://www.usnews.com/static-atlas/assets/img/news/best-countries/flags-svg/USA.svg,United States,Knoxville,#225,,61.7,"27,308",35.9603948,-83.9210261,39.7837304,-100.445882
https://www.usnews.com/education/best-global-universities/north-carolina-state-university-199193,https://www.usnews.com/static-atlas/assets/img/education/education.svg,North Carolina State University,https://www.usnews.com/static-atlas/assets/img/news/best-countries/flags-svg/USA.svg,United States,Raleigh,#230,,61.5,"31,527",35.7803977,-78.6390989,39.7837304,-100.445882
https://www.usnews.com/education/best-global-universities/university-of-newcastle-500363,https://www.usnews.com/static-atlas/assets/img/education/education.svg,University of Newcastle,https://www.usnews.com/static-atlas/assets/img/news/best-countries/flags-svg/AUS.svg,Australia,Callaghan,#231,,61.4,,53.4079575,-113.528504,-24.7761086,134.755
https://www.usnews.com/education/best-global-universities/florida-state-university-134097,https://www.usnews.com/static-atlas/assets/img/education/education.svg,Florida State University,https://www.usnews.com/static-atlas/assets/img/news/best-countries/flags-svg/USA.svg,United States,Tallahassee,#241,,60.9,"39,380",30.4380832,-84.2809332,39.7837304,-100.445882
https://www.usnews.com/education/best-global-universities/university-of-illinois-chicago-145600,https://www.usnews.com/static-atlas/assets/img/education/education.svg,University of Illinois Chicago,https://www.usnews.com/static-atlas/assets/img/news/best-countries/flags-svg/USA.svg,United States,Chicago,#250,,60.6,,41.8755616,-87.6244212,39.7837304,-100.445882
https://www.usnews.com/education/best-global-universities/university-of-miami-135726,https://www.usnews.com/static-atlas/assets/img/education/education.svg,University of Miami,https://www.usnews.com/static-atlas/assets/img/news/best-countries/flags-svg/USA.svg,United States,Coral Gables,#253,,60.5,"17,047",25.72149,-80.2683838,39.7837304,-100.445882
https://www.usnews.com/education/best-global-universities/dartmouth-college-182670,https://www.usnews.com/static-atlas/assets/img/education/education.svg,Dartmouth College,https://www.usnews.com/static-atlas/assets/img/news/best-countries/flags-svg/USA.svg,United States,Hanover,#261,,60.1,"6,440",52.3744779,9.7385532,39.7837304,-100.445882
https://www.usnews.com/education/best-global-universities/university-of-southern-denmark-500382,https://www.usnews.com/static-atlas/assets/img/education/education.svg,University of Southern Denmark,https://www.usnews.com/static-atlas/assets/img/news/best-countries/flags-svg/DNK.svg,Denmark,Odense,#261,,60.1,,55.3997225,10.3852104,55.670249,10.3333283
https://www.usnews.com/education/best-global-universities/iowa-state-university-153603,https://www.usnews.com/static-atlas/assets/img/education/education.svg,Iowa State University,https://www.usnews.com/static-atlas/assets/img/news/best-countries/flags-svg/USA.svg,United States,Ames,#263,,60.0,,50.536715,2.4086536,39.7837304,-100.445882
https://www.usnews.com/education/best-global-universities/virginia-polytechnic-institute-state-university-233921,https://www.usnews.com/static-atlas/assets/img/education/education.svg,Virginia Polytechnic Institute & State University,https://www.usnews.com/static-atlas/assets/img/news/best-countries/flags-svg/USA.svg,United States,Blacksburg,#265,,59.9,"36,512",37.2296566,-80.4136767,39.7837304,-100.445882
https://www.usnews.com/education/best-global-universities/aalborg-university-501276,https://www.usnews.com/static-atlas/assets/img/education/education.svg,Aalborg University,https://www.usnews.com/static-atlas/assets/img/news/best-countries/flags-svg/DNK.svg,Denmark,Aalborg,#267,,59.8,"16,818",57.0462626,9.9215263,55.670249,10.3333283
https://www.usnews.com/education/best-global-universities/university-of-texas-health-science-center-houston-229300,https://www.usnews.com/static-atlas/assets/img/education/education.svg,University of Texas Health Science Center Houston,https://www.usnews.com/static-atlas/assets/img/news/best-countries/flags-svg/USA.svg,United States,Houston,#269,,59.7,,29.7589382,-95.3676974,39.7837304,-100.445882
https://www.usnews.com/education/best-global-universities/george-washington-university-131469,https://www.usnews.com/static-atlas/assets/img/education/education.svg,George Washington University,https://www.usnews.com/static-atlas/assets/img/news/best-countries/flags-svg/USA.svg,United States,"Washington, D.C.",#271,,59.6,"22,298",48.125152,-123.4525429,39.7837304,-100.445882
https://www.usnews.com/education/best-global-universities/university-of-tasmania-502985,https://www.usnews.com/static-atlas/assets/img/education/education.svg,University of Tasmania,https://www.usnews.com/static-atlas/assets/img/news/best-countries/flags-svg/AUS.svg,Australia,Hobart,#273,,59.5,"18,264",-42.8825088,147.3281233,-24.7761086,134.755
https://www.usnews.com/education/best-global-universities/colorado-state-university-126818,https://www.usnews.com/static-atlas/assets/img/education/education.svg,Colorado State University,https://www.usnews.com/static-atlas/assets/img/news/best-countries/flags-svg/USA.svg,United States,Fort Collins,#276,,59.4,"29,351",40.5508527,-105.0668085,39.7837304,-100.445882
https://www.usnews.com/education/best-global-universities/durham-university-501717,https://www.usnews.com/static-atlas/assets/img/education/education.svg,Durham University,https://www.usnews.com/static-atlas/assets/img/news/best-countries/flags-svg/GBR.svg,United Kingdom,Durham (U.K.),#277,,59.3,"18,715",54.666667,-1.75,54.7023545,-3.2765753
https://www.usnews.com/education/best-global-universities/university-of-york-uk-505776,https://www.usnews.com/static-atlas/assets/img/education/education.svg,University of York - UK,https://www.usnews.com/static-atlas/assets/img/news/best-countries/flags-svg/GBR.svg,United Kingdom,York,#280,,59.2,"17,965",53.9590555,-1.0815361,54.7023545,-3.2765753
https://www.usnews.com/education/best-global-universities/osaka-university-505864,https://www.usnews.com/static-atlas/assets/img/education/education.svg,Osaka University,https://www.usnews.com/static-atlas/assets/img/news/best-countries/flags-svg/JPN.svg,Japan,Suita,#286,"Osaka University, sometimes called OU, is a Japanese national university that was founded in 1931 as the sixth imperial...",59.0,"22,485",34.764884,135.51735,36.5748441,139.2394179
https://www.usnews.com/education/best-global-universities/state-university-of-new-york-suny-buffalo-196088,https://www.usnews.com/static-atlas/assets/img/education/education.svg,State University of New York (SUNY) Buffalo,https://www.usnews.com/static-atlas/assets/img/news/best-countries/flags-svg/USA.svg,United States,Buffalo,#286,,59.0,"27,393",42.8867166,-78.8783922,39.7837304,-100.445882
https://www.usnews.com/education/best-global-universities/tohoku-university-500862,https://www.usnews.com/static-atlas/assets/img/education/education.svg,Tohoku University,https://www.usnews.com/static-atlas/assets/img/news/best-countries/flags-svg/JPN.svg,Japan,Sendai,#286,Tohoku University is a Japanese national university that was founded in 1907. The institution is spread across five...,59.0,"17,812",38.2677554,140.8691498,36.5748441,139.2394179
https://www.usnews.com/education/best-global-universities/queens-university-belfast-505350,https://www.usnews.com/static-atlas/assets/img/education/education.svg,Queens University Belfast,https://www.usnews.com/static-atlas/assets/img/news/best-countries/flags-svg/GBR.svg,United Kingdom,Belfast,#295,,58.6,"20,195",54.596391,-5.9301829,54.7023545,-3.2765753
https://www.usnews.com/education/best-global-universities/oregon-state-university-209542,https://www.usnews.com/static-atlas/assets/img/education/education.svg,Oregon State University,https://www.usnews.com/static-atlas/assets/img/news/best-countries/flags-svg/USA.svg,United States,Corvallis,#299,,58.3,,44.5645659,-123.2620435,39.7837304,-100.445882
https://www.usnews.com/education/best-global-universities/western-university-university-of-western-ontario-499965,https://www.usnews.com/static-atlas/assets/img/education/education.svg,Western University (University of Western Ontario),https://www.usnews.com/static-atlas/assets/img/news/best-countries/flags-svg/CAN.svg,Canada,London (Canada),#300,,58.2,,42.9832406,-81.243372,61.0666922,-107.991707
https://www.usnews.com/education/best-global-universities/la-trobe-university-501305,https://www.usnews.com/static-atlas/assets/img/education/education.svg,La Trobe University,https://www.usnews.com/static-atlas/assets/img/news/best-countries/flags-svg/AUS.svg,Australia,Melbourne (Australia),#304,,58.1,"21,663",-37.8142176,144.9631608,-24.7761086,134.755
https://www.usnews.com/education/best-global-universities/university-of-kansas-155317,https://www.usnews.com/static-atlas/assets/img/education/education.svg,University of Kansas,https://www.usnews.com/static-atlas/assets/img/news/best-countries/flags-svg/USA.svg,United States,Lawrence,#304,,58.1,"24,147",38.9719384,-95.2359496,39.7837304,-100.445882
https://www.usnews.com/education/best-global-universities/temple-university-216339,https://www.usnews.com/static-atlas/assets/img/education/education.svg,Temple University,https://www.usnews.com/static-atlas/assets/img/news/best-countries/flags-svg/USA.svg,United States,Philadelphia,#309,,58.0,"35,641",39.9527237,-75.1635262,39.7837304,-100.445882
https://www.usnews.com/education/best-global-universities/university-of-connecticut-129020,https://www.usnews.com/static-atlas/assets/img/education/education.svg,University of Connecticut,https://www.usnews.com/static-atlas/assets/img/news/best-countries/flags-svg/USA.svg,United States,Storrs,#309,,58.0,"27,752",41.80564555,-72.25413294,39.7837304,-100.445882
https://www.usnews.com/education/best-global-universities/university-of-new-mexico-187985,https://www.usnews.com/static-atlas/assets/img/education/education.svg,University of New Mexico,https://www.usnews.com/static-atlas/assets/img/news/best-countries/flags-svg/USA.svg,United States,Albuquerque,#311,,57.9,"18,223",35.0841034,-106.650985,39.7837304,-100.445882
https://www.usnews.com/education/best-global-universities/dalhousie-university-499990,https://www.usnews.com/static-atlas/assets/img/education/education.svg,Dalhousie University,https://www.usnews.com/static-atlas/assets/img/news/best-countries/flags-svg/CAN.svg,Canada,Halifax,#314,,57.7,"16,901",44.648618,-63.5859487,61.0666922,-107.991707
https://www.usnews.com/education/best-global-universities/simon-fraser-university-499981,https://www.usnews.com/static-atlas/assets/img/education/education.svg,Simon Fraser University,https://www.usnews.com/static-atlas/assets/img/news/best-countries/flags-svg/CAN.svg,Canada,Burnaby,#317,,57.6,"26,981",49.2433804,-122.972545,61.0666922,-107.991707
https://www.usnews.com/education/best-global-universities/university-of-south-florida-137351,https://www.usnews.com/static-atlas/assets/img/education/education.svg,University of South Florida,https://www.usnews.com/static-atlas/assets/img/news/best-countries/flags-svg/USA.svg,United States,Tampa,#317,,57.6,"39,907",27.9477595,-82.458444,39.7837304,-100.445882
https://www.usnews.com/education/best-global-universities/university-of-notre-dame-152080,https://www.usnews.com/static-atlas/assets/img/education/education.svg,University of Notre Dame,https://www.usnews.com/static-atlas/assets/img/news/best-countries/flags-svg/USA.svg,United States,Notre Dame,#322,,57.4,"12,401",41.70456775,-86.23822026,39.7837304,-100.445882
https://www.usnews.com/education/best-global-universities/university-of-georgia-139959,https://www.usnews.com/static-atlas/assets/img/education/education.svg,University of Georgia,https://www.usnews.com/static-atlas/assets/img/news/best-countries/flags-svg/USA.svg,United States,"Athens (Georgia, U.S.)",#324,,57.3,,37.9838,23.7275,39.7837304,-100.445882
https://www.usnews.com/education/best-global-universities/university-of-victoria-499967,https://www.usnews.com/static-atlas/assets/img/education/education.svg,University of Victoria,https://www.usnews.com/static-atlas/assets/img/news/best-countries/flags-svg/CAN.svg,Canada,Victoria,#324,,57.3,"20,936",-36.5986096,144.6780052,61.0666922,-107.991707
https://www.usnews.com/education/best-global-universities/washington-state-university-236939,https://www.usnews.com/static-atlas/assets/img/education/education.svg,Washington State University,https://www.usnews.com/static-atlas/assets/img/news/best-countries/flags-svg/USA.svg,United States,Pullman,#328,,57.2,"29,463",46.7304268,-117.173895,39.7837304,-100.445882
https://www.usnews.com/education/best-global-universities/nagoya-university-501944,https://www.usnews.com/static-atlas/assets/img/education/education.svg,Nagoya University,https://www.usnews.com/static-atlas/assets/img/news/best-countries/flags-svg/JPN.svg,Japan,Nagoya,#333,"Nagoya University is a Japanese national university that traces its roots back to 1871, when its predecessor medical...",56.8,"15,224",35.1851045,136.8998438,36.5748441,139.2394179
https://www.usnews.com/education/best-global-universities/university-of-reading-504198,https://www.usnews.com/static-atlas/assets/img/education/education.svg,University of Reading,https://www.usnews.com/static-atlas/assets/img/news/best-countries/flags-svg/GBR.svg,United Kingdom,Reading,#333,,56.8,"16,195",51.456659,-0.9696512,54.7023545,-3.2765753
https://www.usnews.com/education/best-global-universities/eindhoven-university-of-technology-501655,https://www.usnews.com/static-atlas/assets/img/education/education.svg,Eindhoven University of Technology,https://www.usnews.com/static-atlas/assets/img/news/best-countries/flags-svg/NLD.svg,Netherlands,Eindhoven,#342,,56.4,,51.4392648,5.478633,52.2434979,5.6343227
https://www.usnews.com/education/best-global-universities/university-of-south-carolina-columbia-218663,https://www.usnews.com/static-atlas/assets/img/education/education.svg,University of South Carolina Columbia,https://www.usnews.com/static-atlas/assets/img/news/best-countries/flags-svg/USA.svg,United States,Columbia,#346,,56.2,,4.099917,-72.9088133,39.7837304,-100.445882
https://www.usnews.com/education/best-global-universities/kyushu-university-505482,https://www.usnews.com/static-atlas/assets/img/education/education.svg,Kyushu University,https://www.usnews.com/static-atlas/assets/img/news/best-countries/flags-svg/JPN.svg,Japan,Fukuoka,#349,,56.1,,33.6251241,130.6180016,36.5748441,139.2394179
https://www.usnews.com/education/best-global-universities/university-of-texas-dallas-228787,https://www.usnews.com/static-atlas/assets/img/education/education.svg,University of Texas Dallas,https://www.usnews.com/static-atlas/assets/img/news/best-countries/flags-svg/USA.svg,United States,Richardson,#349,,56.1,"25,464",32.9481789,-96.7297206,39.7837304,-100.445882
https://www.usnews.com/education/best-global-universities/drexel-university-212054,https://www.usnews.com/static-atlas/assets/img/education/education.svg,Drexel University,https://www.usnews.com/static-atlas/assets/img/news/best-countries/flags-svg/USA.svg,United States,Philadelphia,#352,,56.0,,39.9527237,-75.1635262,39.7837304,-100.445882
https://www.usnews.com/education/best-global-universities/university-of-delaware-130943,https://www.usnews.com/static-atlas/assets/img/education/education.svg,University of Delaware,https://www.usnews.com/static-atlas/assets/img/news/best-countries/flags-svg/USA.svg,United States,Newark,#352,,56.0,"21,808",40.735657,-74.1723667,39.7837304,-100.445882
https://www.usnews.com/education/best-global-universities/university-of-kentucky-157085,https://www.usnews.com/static-atlas/assets/img/education/education.svg,University of Kentucky,https://www.usnews.com/static-atlas/assets/img/news/best-countries/flags-svg/USA.svg,United States,Lexington,#356,,55.8,,38.0464066,-84.4970393,39.7837304,-100.445882
https://www.usnews.com/education/best-global-universities/tokyo-institute-of-technology-504950,https://www.usnews.com/static-atlas/assets/img/education/education.svg,Tokyo Institute of Technology,https://www.usnews.com/static-atlas/assets/img/news/best-countries/flags-svg/JPN.svg,Japan,Tokyo,#360,"The Tokyo Institute of Technology, also known as Tokyo Tech, is a Japanese national university. The institution traces...",55.7,"9,878",35.6812665,139.757653,36.5748441,139.2394179
https://www.usnews.com/education/best-global-universities/university-of-south-australia-506290,https://www.usnews.com/static-atlas/assets/img/education/education.svg,University of South Australia,https://www.usnews.com/static-atlas/assets/img/news/best-countries/flags-svg/AUS.svg,Australia,Adelaide,#363,,55.6,"23,490",-34.9281805,138.5999312,-24.7761086,134.755
https://www.usnews.com/education/best-global-universities/university-of-surrey-505401,https://www.usnews.com/static-atlas/assets/img/education/education.svg,University of Surrey,https://www.usnews.com/static-atlas/assets/img/news/best-countries/flags-svg/GBR.svg,United Kingdom,Surrey,#370,,55.3,"15,875",51.2715316,-0.341452351,54.7023545,-3.2765753
https://www.usnews.com/education/best-global-universities/university-of-manitoba-503954,https://www.usnews.com/static-atlas/assets/img/education/education.svg,University of Manitoba,https://www.usnews.com/static-atlas/assets/img/news/best-countries/flags-svg/CAN.svg,Canada,Winnipeg,#372,,55.2,"29,561",49.8955367,-97.1384584,61.0666922,-107.991707
https://www.usnews.com/education/best-global-universities/university-of-strathclyde-504736,https://www.usnews.com/static-atlas/assets/img/education/education.svg,University of Strathclyde,https://www.usnews.com/static-atlas/assets/img/news/best-countries/flags-svg/GBR.svg,United Kingdom,Glasgow,#379,,55.0,,55.861155,-4.2501687,54.7023545,-3.2765753
https://www.usnews.com/education/best-global-universities/wayne-state-university-172644,https://www.usnews.com/static-atlas/assets/img/education/education.svg,Wayne State University,https://www.usnews.com/static-atlas/assets/img/news/best-countries/flags-svg/USA.svg,United States,Detroit,#385,,54.9,,42.3315509,-83.0466403,39.7837304,-100.445882
https://www.usnews.com/education/best-global-universities/louisiana-state-university-159391,https://www.usnews.com/static-atlas/assets/img/education/education.svg,Louisiana State University,https://www.usnews.com/static-atlas/assets/img/news/best-countries/flags-svg/USA.svg,United States,Baton Rouge,#389,,54.8,"29,191",30.4507936,-91.1391153,39.7837304,-100.445882
https://www.usnews.com/education/best-global-universities/laval-university-505699,https://www.usnews.com/static-atlas/assets/img/education/education.svg,Laval University,https://www.usnews.com/static-atlas/assets/img/news/best-countries/flags-svg/CAN.svg,Canada,Quebec City,#397,,54.5,"28,611",46.8137431,-71.2084061,61.0666922,-107.991707
https://www.usnews.com/education/best-global-universities/university-of-twente-506687,https://www.usnews.com/static-atlas/assets/img/education/education.svg,University of Twente,https://www.usnews.com/static-atlas/assets/img/news/best-countries/flags-svg/NLD.svg,Netherlands,Enschede,#400,,54.4,"9,816",52.2209855,6.8940537,52.2434979,5.6343227
https://www.usnews.com/education/best-global-universities/university-of-bath-506373,https://www.usnews.com/static-atlas/assets/img/education/education.svg,University of Bath,https://www.usnews.com/static-atlas/assets/img/news/best-countries/flags-svg/GBR.svg,United Kingdom,Bath,#409,,54.2,"16,730",51.3813864,-2.3596963,54.7023545,-3.2765753
https://www.usnews.com/education/best-global-universities/university-of-nebraska-lincoln-181464,https://www.usnews.com/static-atlas/assets/img/education/education.svg,University of Nebraska Lincoln,https://www.usnews.com/static-atlas/assets/img/news/best-countries/flags-svg/USA.svg,United States,Lincoln (U.S.),#409,,54.2,"25,055",-27.4718777,-58.9911405,39.7837304,-100.445882
https://www.usnews.com/education/best-global-universities/university-of-central-florida-132903,https://www.usnews.com/static-atlas/assets/img/education/education.svg,University of Central Florida,https://www.usnews.com/static-atlas/assets/img/news/best-countries/flags-svg/USA.svg,United States,Orlando,#413,,54.1,"62,248",28.5421109,-81.3790304,39.7837304,-100.445882
https://www.usnews.com/education/best-global-universities/york-university-canada-499962,https://www.usnews.com/static-atlas/assets/img/education/education.svg,York University - Canada,https://www.usnews.com/static-atlas/assets/img/news/best-countries/flags-svg/CAN.svg,Canada,Toronto,#426,,53.8,"44,036",43.6534817,-79.3839347,61.0666922,-107.991707
https://www.usnews.com/education/best-global-universities/queens-university-canada-500946,https://www.usnews.com/static-atlas/assets/img/education/education.svg,Queens University - Canada,https://www.usnews.com/static-atlas/assets/img/news/best-countries/flags-svg/CAN.svg,Canada,Kingston (Canada),#429,,53.7,"26,575",44.230687,-76.481323,61.0666922,-107.991707
https://www.usnews.com/education/best-global-universities/hokkaido-university-501928,https://www.usnews.com/static-atlas/assets/img/education/education.svg,Hokkaido University,https://www.usnews.com/static-atlas/assets/img/news/best-countries/flags-svg/JPN.svg,Japan,Sapporo,#432,,53.6,,43.061936,141.3542924,36.5748441,139.2394179
https://www.usnews.com/education/best-global-universities/university-of-houston-225511,https://www.usnews.com/static-atlas/assets/img/education/education.svg,University of Houston,https://www.usnews.com/static-atlas/assets/img/news/best-countries/flags-svg/USA.svg,United States,Houston,#432,,53.6,"46,958",29.7589382,-95.3676974,39.7837304,-100.445882
https://www.usnews.com/education/best-global-universities/university-of-tsukuba-506429,https://www.usnews.com/static-atlas/assets/img/education/education.svg,University of Tsukuba,https://www.usnews.com/static-atlas/assets/img/news/best-countries/flags-svg/JPN.svg,Japan,Tsukuba,#432,,53.6,"16,626",36.0833265,140.077279,36.5748441,139.2394179
https://www.usnews.com/education/best-global-universities/virginia-commonwealth-university-234030,https://www.usnews.com/static-atlas/assets/img/education/education.svg,Virginia Commonwealth University,https://www.usnews.com/static-atlas/assets/img/news/best-countries/flags-svg/USA.svg,United States,Richmond,#439,,53.5,,37.5385087,-77.43428,39.7837304,-100.445882
https://www.usnews.com/education/best-global-universities/university-of-saskatchewan-499969,https://www.usnews.com/static-atlas/assets/img/education/education.svg,University of Saskatchewan,https://www.usnews.com/static-atlas/assets/img/news/best-countries/flags-svg/CAN.svg,Canada,Saskatoon,#441,,53.4,"17,741",52.131802,-106.660767,61.0666922,-107.991707
https://www.usnews.com/education/best-global-universities/university-of-missouri-columbia-178396,https://www.usnews.com/static-atlas/assets/img/education/education.svg,University of Missouri Columbia,https://www.usnews.com/static-atlas/assets/img/news/best-countries/flags-svg/USA.svg,United States,Columbia,#452,,53.1,"25,113",4.099917,-72.9088133,39.7837304,-100.445882
https://www.usnews.com/education/best-global-universities/university-of-oklahoma-norman-207500,https://www.usnews.com/static-atlas/assets/img/education/education.svg,University of Oklahoma - Norman,https://www.usnews.com/static-atlas/assets/img/news/best-countries/flags-svg/USA.svg,United States,Norman,#461,,52.9,"26,450",35.2225717,-97.4394816,39.7837304,-100.445882
https://www.usnews.com/education/best-global-universities/swansea-university-505583,https://www.usnews.com/static-atlas/assets/img/education/education.svg,Swansea University,https://www.usnews.com/static-atlas/assets/img/news/best-countries/flags-svg/GBR.svg,United Kingdom,Swansea,#463,,52.8,"17,745",51.6195955,-3.9459248,54.7023545,-3.2765753
https://www.usnews.com/education/best-global-universities/florida-international-university-133951,https://www.usnews.com/static-atlas/assets/img/education/education.svg,Florida International University,https://www.usnews.com/static-atlas/assets/img/news/best-countries/flags-svg/USA.svg,United States,Miami,#468,,52.6,"35,590",25.7741728,-80.19362,39.7837304,-100.445882
https://www.usnews.com/education/best-global-universities/texas-tech-university-229115,https://www.usnews.com/static-atlas/assets/img/education/education.svg,Texas Tech University,https://www.usnews.com/static-atlas/assets/img/news/best-countries/flags-svg/USA.svg,United States,Lubbock,#472,,52.4,"35,809",33.5634402,-101.8792389,39.7837304,-100.445882
https://www.usnews.com/education/best-global-universities/george-mason-university-232186,https://www.usnews.com/static-atlas/assets/img/education/education.svg,George Mason University,https://www.usnews.com/static-atlas/assets/img/news/best-countries/flags-svg/USA.svg,United States,Fairfax,#478,,52.2,"32,140",38.8462236,-77.3063733,39.7837304,-100.445882
https://www.usnews.com/education/best-global-universities/brunel-university-502232,https://www.usnews.com/static-atlas/assets/img/education/education.svg,Brunel University,https://www.usnews.com/static-atlas/assets/img/news/best-countries/flags-svg/GBR.svg,United Kingdom,Uxbridge,#485,,51.9,"14,185",51.5449509,-0.4816672,54.7023545,-3.2765753
https://www.usnews.com/education/best-global-universities/liverpool-john-moores-university-504028,https://www.usnews.com/static-atlas/assets/img/education/education.svg,Liverpool John Moores University,https://www.usnews.com/static-atlas/assets/img/news/best-countries/flags-svg/GBR.svg,United Kingdom,Liverpool,#497,,51.4,,53.4071991,-2.99168,54.7023545,-3.2765753
https://www.usnews.com/education/best-global-universities/university-of-guelph-499974,https://www.usnews.com/static-atlas/assets/img/education/education.svg,University of Guelph,https://www.usnews.com/static-atlas/assets/img/news/best-countries/flags-svg/CAN.svg,Canada,Guelph,#497,,51.4,"22,763",43.5460516,-80.2493276,61.0666922,-107.991707
https://www.usnews.com/education/best-global-universities/indiana-university-purdue-university-indianapolis-151111,https://www.usnews.com/static-atlas/assets/img/education/education.svg,Indiana University-Purdue University Indianapolis,https://www.usnews.com/static-atlas/assets/img/news/best-countries/flags-svg/USA.svg,United States,Indianapolis,#500,,51.3,,39.7683331,-86.1583502,39.7837304,-100.445882
https://www.usnews.com/education/best-global-universities/georgia-state-university-139940,https://www.usnews.com/static-atlas/assets/img/education/education.svg,Georgia State University,https://www.usnews.com/static-atlas/assets/img/news/best-countries/flags-svg/USA.svg,United States,Atlanta,#504,,51.1,,33.7489924,-84.3902644,39.7837304,-100.445882
https://www.usnews.com/education/best-global-universities/university-of-alabama-tuscaloosa-100751,https://www.usnews.com/static-atlas/assets/img/education/education.svg,University of Alabama Tuscaloosa,https://www.usnews.com/static-atlas/assets/img/news/best-countries/flags-svg/USA.svg,United States,Tuscaloosa,#512,,50.7,"44,133",33.2095614,-87.5675258,39.7837304,-100.445882
https://www.usnews.com/education/best-global-universities/keio-university-500715,https://www.usnews.com/static-atlas/assets/img/education/education.svg,Keio University,https://www.usnews.com/static-atlas/assets/img/news/best-countries/flags-svg/JPN.svg,Japan,Tokyo,#517,,50.6,,35.6812665,139.757653,36.5748441,139.2394179
https://www.usnews.com/education/best-global-universities/carleton-university-499991,https://www.usnews.com/static-atlas/assets/img/education/education.svg,Carleton University,https://www.usnews.com/static-atlas/assets/img/news/best-countries/flags-svg/CAN.svg,Canada,Ottawa,#526,,50.3,,45.4208777,-75.6901106,61.0666922,-107.991707
https://www.usnews.com/education/best-global-universities/loughborough-university-506503,https://www.usnews.com/static-atlas/assets/img/education/education.svg,Loughborough University,https://www.usnews.com/static-atlas/assets/img/news/best-countries/flags-svg/GBR.svg,United Kingdom,Loughborough,#526,,50.3,"17,130",52.7723859,-1.2077985,54.7023545,-3.2765753
https://www.usnews.com/education/best-global-universities/indian-institute-of-science-iisc-bangalore-505956,https://www.usnews.com/object/image/00000157-8cb5-dca0-ad7f-ccb7ccf20000/$161003_IISc?size=responsive300&update-time=1475534623655,Indian Institute of Science (IISC) - Bangalore,https://www.usnews.com/static-atlas/assets/img/news/best-countries/flags-svg/IND.svg,India,Bangalore,#551,The Indian Institute of Science is a public institution that was founded in 1909. The university is located in the city...,49.6,"3,990",12.9767936,77.590082,22.3511148,78.6677428
https://www.usnews.com/education/best-global-universities/university-of-portsmouth-505745,https://www.usnews.com/static-atlas/assets/img/education/education.svg,University of Portsmouth,https://www.usnews.com/static-atlas/assets/img/news/best-countries/flags-svg/GBR.svg,United Kingdom,Portsmouth,#558,,49.4,"23,595",50.8036831,-1.075614,54.7023545,-3.2765753
https://www.usnews.com/education/best-global-universities/university-of-kent-500018,https://www.usnews.com/static-atlas/assets/img/education/education.svg,University of Kent,https://www.usnews.com/static-atlas/assets/img/news/best-countries/flags-svg/GBR.svg,United Kingdom,Canterbury,#576,,48.9,,51.2800275,1.0802533,54.7023545,-3.2765753
https://www.usnews.com/education/best-global-universities/university-of-texas-arlington-228769,https://www.usnews.com/static-atlas/assets/img/education/education.svg,University of Texas Arlington,https://www.usnews.com/static-atlas/assets/img/news/best-countries/flags-svg/USA.svg,United States,Arlington,#576,,48.9,"33,537",32.7355816,-97.1071186,39.7837304,-100.445882
https://www.usnews.com/education/best-global-universities/university-of-texas-at-san-antonio-utsa-229027,https://www.usnews.com/static-atlas/assets/img/education/education.svg,University of Texas at San Antonio (UTSA),https://www.usnews.com/static-atlas/assets/img/news/best-countries/flags-svg/USA.svg,United States,San Antonio,#576,,48.9,"27,187",29.4246002,-98.4951405,39.7837304,-100.445882
https://www.usnews.com/education/best-global-universities/auburn-university-100858,https://www.usnews.com/static-atlas/assets/img/education/education.svg,Auburn University,https://www.usnews.com/static-atlas/assets/img/news/best-countries/flags-svg/USA.svg,United States,Auburn,#579,,48.8,"27,512",32.6098566,-85.4807825,39.7837304,-100.445882
https://www.usnews.com/education/best-global-universities/waseda-university-501931,https://www.usnews.com/static-atlas/assets/img/education/education.svg,Waseda University,https://www.usnews.com/static-atlas/assets/img/news/best-countries/flags-svg/JPN.svg,Japan,Tokyo,#579,,48.8,"46,798",35.6812665,139.757653,36.5748441,139.2394179
https://www.usnews.com/education/best-global-universities/indian-institute-of-technology-iit-bombay-501259,https://www.usnews.com/static-atlas/assets/img/education/education.svg,Indian Institute of Technology (IIT) - Bombay,https://www.usnews.com/static-atlas/assets/img/news/best-countries/flags-svg/IND.svg,India,Mumbai,#583,"The Indian Institute of Technology Bombay, also known as IIT Bombay, is a public institution that was founded in 1958...",48.7,,19.0785451,72.878176,22.3511148,78.6677428
https://www.usnews.com/education/best-global-universities/san-diego-state-university-122409,https://www.usnews.com/static-atlas/assets/img/education/education.svg,San Diego State University,https://www.usnews.com/static-atlas/assets/img/news/best-countries/flags-svg/USA.svg,United States,San Diego,#593,,48.4,"31,340",32.7174202,-117.1627728,39.7837304,-100.445882
https://www.usnews.com/education/best-global-universities/indian-institute-of-technology-iit-madras-502278,https://www.usnews.com/static-atlas/assets/img/education/education.svg,Indian Institute of Technology (IIT) - Madras,https://www.usnews.com/static-atlas/assets/img/news/best-countries/flags-svg/IND.svg,India,Chennai,#605,"The Indian Institute of Technology Madras, also known as IIT Madras, is a public institution that was founded in 195...",48.2,,13.0836939,80.270186,22.3511148,78.6677428
https://www.usnews.com/education/best-global-universities/oklahoma-state-university-stillwater-207388,https://www.usnews.com/static-atlas/assets/img/education/education.svg,Oklahoma State University - Stillwater,https://www.usnews.com/static-atlas/assets/img/news/best-countries/flags-svg/USA.svg,United States,Stillwater,#633,,47.3,"21,250",36.1156306,-97.0585717,39.7837304,-100.445882
https://www.usnews.com/education/best-global-universities/university-of-essex-502672,https://www.usnews.com/static-atlas/assets/img/education/education.svg,University of Essex,https://www.usnews.com/static-atlas/assets/img/news/best-countries/flags-svg/GBR.svg,United Kingdom,Colchester,#633,,47.3,"15,075",51.8896903,0.8994651,54.7023545,-3.2765753
https://www.usnews.com/education/best-global-universities/rochester-institute-of-technology-195003,https://www.usnews.com/static-atlas/assets/img/education/education.svg,Rochester Institute of Technology,https://www.usnews.com/static-atlas/assets/img/news/best-countries/flags-svg/USA.svg,United States,Rochester,#639,,47.2,,43.157285,-77.615214,39.7837304,-100.445882
https://www.usnews.com/education/best-global-universities/victoria-university-528927,https://www.usnews.com/static-atlas/assets/img/education/education.svg,Victoria University,https://www.usnews.com/static-atlas/assets/img/news/best-countries/flags-svg/AUS.svg,Australia,Footscray,#649,,47.0,"14,387",-37.801366,144.9024241,-24.7761086,134.755
https://www.usnews.com/education/best-global-universities/concordia-university-canada-499961,https://www.usnews.com/static-atlas/assets/img/education/education.svg,Concordia University - Canada,https://www.usnews.com/static-atlas/assets/img/news/best-countries/flags-svg/CAN.svg,Canada,Montreal,#653,,46.8,"35,592",45.5031824,-73.5698065,61.0666922,-107.991707
https://www.usnews.com/education/best-global-universities/university-of-north-carolina-charlotte-199139,https://www.usnews.com/static-atlas/assets/img/education/education.svg,University of North Carolina Charlotte,https://www.usnews.com/static-atlas/assets/img/news/best-countries/flags-svg/USA.svg,United States,Charlotte,#676,,46.3,,35.2272086,-80.8430827,39.7837304,-100.445882
https://www.usnews.com/education/best-global-universities/university-of-north-texas-denton-227216,https://www.usnews.com/static-atlas/assets/img/education/education.svg,University of North Texas Denton,https://www.usnews.com/static-atlas/assets/img/news/best-countries/flags-svg/USA.svg,United States,Denton,#679,,46.2,,33.1838787,-97.1413417,39.7837304,-100.445882
https://www.usnews.com/education/best-global-universities/clemson-university-217882,https://www.usnews.com/static-atlas/assets/img/education/education.svg,Clemson University,https://www.usnews.com/static-atlas/assets/img/news/best-countries/flags-svg/USA.svg,United States,Clemson,#693,,45.9,,34.6850749,-82.8364111,39.7837304,-100.445882
https://www.usnews.com/education/best-global-universities/memorial-university-newfoundland-499985,https://www.usnews.com/static-atlas/assets/img/education/education.svg,Memorial University Newfoundland,https://www.usnews.com/static-atlas/assets/img/news/best-countries/flags-svg/CAN.svg,Canada,St. John's,#698,,45.7,,47.5614705,-52.7126162,61.0666922,-107.991707
https://www.usnews.com/education/best-global-universities/rensselaer-polytechnic-institute-194824,https://www.usnews.com/static-atlas/assets/img/education/education.svg,Rensselaer Polytechnic Institute,https://www.usnews.com/static-atlas/assets/img/news/best-countries/flags-svg/USA.svg,United States,Troy,#698,,45.7,,39.95737395,26.23801746,39.7837304,-100.445882
https://www.usnews.com/education/best-global-universities/northumbria-university-529055,https://www.usnews.com/static-atlas/assets/img/education/education.svg,Northumbria University,https://www.usnews.com/static-atlas/assets/img/news/best-countries/flags-svg/GBR.svg,United Kingdom,Newcastle upon Tyne,#708,,45.5,"23,495",54.9738474,-1.6131572,54.7023545,-3.2765753
https://www.usnews.com/education/best-global-universities/cranfield-university-500995,https://www.usnews.com/static-atlas/assets/img/education/education.svg,Cranfield University,https://www.usnews.com/static-atlas/assets/img/news/best-countries/flags-svg/GBR.svg,United Kingdom,Cranfield,#710,,45.4,,52.0690205,-0.6079317,54.7023545,-3.2765753
https://www.usnews.com/education/best-global-universities/indian-institute-of-technology-iit-delhi-500856,https://www.usnews.com/static-atlas/assets/img/education/education.svg,Indian Institute of Technology (IIT) - Delhi,https://www.usnews.com/static-atlas/assets/img/news/best-countries/flags-svg/IND.svg,India,New Delhi,#717,,45.3,"9,794",28.6138954,77.2090057,22.3511148,78.6677428
https://www.usnews.com/education/best-global-universities/heriot-watt-university-506192,https://www.usnews.com/static-atlas/assets/img/education/education.svg,Heriot Watt University,https://www.usnews.com/static-atlas/assets/img/news/best-countries/flags-svg/GBR.svg,United Kingdom,Edinburgh,#725,,45.1,"9,885",55.9533456,-3.1883749,54.7023545,-3.2765753
https://www.usnews.com/education/best-global-universities/illinois-institute-of-technology-145725,https://www.usnews.com/static-atlas/assets/img/education/education.svg,Illinois Institute of Technology,https://www.usnews.com/static-atlas/assets/img/news/best-countries/flags-svg/USA.svg,United States,Chicago,#735,,44.8,,41.8755616,-87.6244212,39.7837304,-100.445882
https://www.usnews.com/education/best-global-universities/university-of-quebec-montreal-504868,https://www.usnews.com/static-atlas/assets/img/education/education.svg,University of Quebec Montreal,https://www.usnews.com/static-atlas/assets/img/news/best-countries/flags-svg/CAN.svg,Canada,Montreal,#745,,44.5,,45.5031824,-73.5698065,61.0666922,-107.991707
https://www.usnews.com/education/best-global-universities/manchester-metropolitan-university-528968,https://www.usnews.com/static-atlas/assets/img/education/education.svg,Manchester Metropolitan University,https://www.usnews.com/static-atlas/assets/img/news/best-countries/flags-svg/GBR.svg,United Kingdom,Manchester,#750,,44.4,"29,830",53.4794892,-2.2451148,54.7023545,-3.2765753
https://www.usnews.com/education/best-global-universities/university-of-arkansas-fayetteville-106397,https://www.usnews.com/static-atlas/assets/img/education/education.svg,University of Arkansas Fayetteville,https://www.usnews.com/static-atlas/assets/img/news/best-countries/flags-svg/USA.svg,United States,Fayetteville,#750,,44.4,"25,207",36.0625843,-94.1574328,39.7837304,-100.445882
https://www.usnews.com/education/best-global-universities/university-of-maryland-baltimore-county-163268,https://www.usnews.com/static-atlas/assets/img/education/education.svg,University of Maryland Baltimore County,https://www.usnews.com/static-atlas/assets/img/news/best-countries/flags-svg/USA.svg,United States,Baltimore,#759,,44.2,,39.2908816,-76.610759,39.7837304,-100.445882
https://www.usnews.com/education/best-global-universities/indian-institute-of-technology-iit-kharagpur-500533,https://www.usnews.com/static-atlas/assets/img/education/education.svg,Indian Institute of Technology (IIT) - Kharagpur,https://www.usnews.com/static-atlas/assets/img/news/best-countries/flags-svg/IND.svg,India,Kharagpur,#764,,44.1,,25.13317305,86.52504036,22.3511148,78.6677428
https://www.usnews.com/education/best-global-universities/university-of-sherbrooke-506839,https://www.usnews.com/static-atlas/assets/img/education/education.svg,University of Sherbrooke,https://www.usnews.com/static-atlas/assets/img/news/best-countries/flags-svg/CAN.svg,Canada,Sherbrooke,#789,,43.4,,45.403271,-71.889038,61.0666922,-107.991707
https://www.usnews.com/education/best-global-universities/ulster-university-528872,https://www.usnews.com/static-atlas/assets/img/education/education.svg,Ulster University,https://www.usnews.com/static-atlas/assets/img/news/best-countries/flags-svg/GBR.svg,United Kingdom,Coleraine,#814,,42.8,"19,680",55.1315912,-6.671861,54.7023545,-3.2765753
https://www.usnews.com/education/best-global-universities/new-jersey-institute-of-technology-185828,https://www.usnews.com/static-atlas/assets/img/education/education.svg,New Jersey Institute of Technology,https://www.usnews.com/static-atlas/assets/img/news/best-countries/flags-svg/USA.svg,United States,Newark,#826,,42.4,"9,757",40.735657,-74.1723667,39.7837304,-100.445882
https://www.usnews.com/education/best-global-universities/missouri-university-of-science-technology-178411,https://www.usnews.com/static-atlas/assets/img/education/education.svg,Missouri University of Science & Technology,https://www.usnews.com/static-atlas/assets/img/news/best-countries/flags-svg/USA.svg,United States,Rolla,#835,,42.3,,13.84850035,77.09851328,39.7837304,-100.445882
https://www.usnews.com/education/best-global-universities/vellore-institute-of-technology-529209,https://www.usnews.com/static-atlas/assets/img/education/education.svg,Vellore Institute of Technology,https://www.usnews.com/static-atlas/assets/img/news/best-countries/flags-svg/IND.svg,India,Tamil Nadu,#844,,42.2,"33,416",10.9094334,78.3665347,22.3511148,78.6677428
https://www.usnews.com/education/best-global-universities/indian-institute-of-technology-iit-kanpur-506622,https://www.usnews.com/static-atlas/assets/img/education/education.svg,Indian Institute of Technology (IIT) - Kanpur,https://www.usnews.com/static-atlas/assets/img/news/best-countries/flags-svg/IND.svg,India,Kanpur,#879,,41.3,,26.4609135,80.3217588,22.3511148,78.6677428
https://www.usnews.com/education/best-global-universities/new-york-university-tandon-school-of-engineering-529686,https://www.usnews.com/static-atlas/assets/img/education/education.svg,New York University Tandon School of Engineering,https://www.usnews.com/static-atlas/assets/img/news/best-countries/flags-svg/USA.svg,United States,Brooklyn,#879,,41.3,,40.6526006,-73.9497211,39.7837304,-100.445882
https://www.usnews.com/education/best-global-universities/indian-institute-of-technology-iit-roorkee-528828,https://www.usnews.com/static-atlas/assets/img/education/education.svg,Indian Institute of Technology (IIT) - Roorkee,https://www.usnews.com/static-atlas/assets/img/news/best-countries/flags-svg/IND.svg,India,Roorkee,#896,,41.0,,29.8693496,77.8902124,22.3511148,78.6677428
https://www.usnews.com/education/best-global-universities/mississippi-state-university-176080,https://www.usnews.com/static-atlas/assets/img/education/education.svg,Mississippi State University,https://www.usnews.com/static-atlas/assets/img/news/best-countries/flags-svg/USA.svg,United States,Mississippi State,#920,,40.5,"22,035",33.4549304,-88.7859584,39.7837304,-100.445882
https://www.usnews.com/education/best-global-universities/university-of-idaho-142285,https://www.usnews.com/static-atlas/assets/img/education/education.svg,University of Idaho,https://www.usnews.com/static-atlas/assets/img/news/best-countries/flags-svg/USA.svg,United States,Moscow (U.S.),#920,,40.5,"9,263",41.5228772,-71.7414571,39.7837304,-100.445882
https://www.usnews.com/education/best-global-universities/university-of-new-brunswick-499973,https://www.usnews.com/static-atlas/assets/img/education/education.svg,University of New Brunswick,https://www.usnews.com/static-atlas/assets/img/news/best-countries/flags-svg/CAN.svg,Canada,Fredericton,#948,,39.9,"8,307",45.94845575,-66.65302242,61.0666922,-107.991707
https://www.usnews.com/education/best-global-universities/old-dominion-university-232982,https://www.usnews.com/static-atlas/assets/img/education/education.svg,Old Dominion University,https://www.usnews.com/static-atlas/assets/img/news/best-countries/flags-svg/USA.svg,United States,Norfolk,#989,,39.0,"18,705",52.666667,1.0,39.7837304,-100.445882
https://www.usnews.com/education/best-global-universities/thapar-institute-of-engineering-technology-529291,https://www.usnews.com/static-atlas/assets/img/education/education.svg,Thapar Institute of Engineering & Technology,https://www.usnews.com/static-atlas/assets/img/news/best-countries/flags-svg/IND.svg,India,Patiala,#997,,38.8,,30.2090874,76.33987209,22.3511148,78.6677428
https://www.usnews.com/education/best-global-universities/university-of-west-england-529164,https://www.usnews.com/static-atlas/assets/img/education/education.svg,University of West England,https://www.usnews.com/static-atlas/assets/img/news/best-countries/flags-svg/GBR.svg,United Kingdom,Bristol,"#1,027",,38.2,,51.4538022,-2.5972985,54.7023545,-3.2765753
https://www.usnews.com/education/best-global-universities/middlesex-university-528885,https://www.usnews.com/static-atlas/assets/img/education/education.svg,Middlesex University,https://www.usnews.com/static-atlas/assets/img/news/best-countries/flags-svg/GBR.svg,United Kingdom,London (U.K.),"#1,049",,37.6,"16,415",51.5073359,-0.12765,54.7023545,-3.2765753
https://www.usnews.com/education/best-global-universities/coventry-university-529401,https://www.usnews.com/static-atlas/assets/img/education/education.svg,Coventry University,https://www.usnews.com/static-atlas/assets/img/news/best-countries/flags-svg/GBR.svg,United Kingdom,Coventry,"#1,080",,37.1,"33,395",52.4081812,-1.510477,54.7023545,-3.2765753
